{"type": "FeatureCollection", "features": [{"type": "Feature", "geometry": {"type": "Point", "coordinates": [-0.9288802272749903, 41.59903730686364]}, "properties": {"nombre": "14 PALOS CLUB DE GOLF INDOOR", "url": "https://rfegolf.es/club/14_palos_club_de_golf_indoor?id=1136", "telefono": "680712410", "email": "administracion@14palos.golf", "imagen_main": "https://assets.rfeg.es/static/assets/static/clubes/14_palos_club_de_golf_indoor/14_palos_club_de_golf_indoor_main.webp", "municipio": "Cuarte de Huerva", "provincia": "Zaragoza"}}, {"type": "Feature", "geometry": {"type": "Point", "coordinates": [2.63627, 39.59548]}, "properties": {"nombre": "ADNGOLF CLUB", "url": "https://rfegolf.es/club/mallorca_indoor_golf_club?id=1103", "telefono": "971750653", "email": "", "imagen_main": "https://assets.rfeg.es/static/assets/static/clubes/mallorca_indoor_golf_club/mallorca_indoor_golf_club_main.jpg", "municipio": "Palma", "provincia": "Illes Balears"}}, {"type": "Feature", "geometry": {"type": "Point", "coordinates": [-2.87783, 43.29318]}, "properties": {"nombre": "AGRUPACION DEPORTIVA CELLES GOLF BIZKAIA", "url": "https://rfegolf.es/club/agrupacion_deportiva_celles_golf_bizkaia?id=755", "telefono": "944541328", "email": "golfcelles@gmail.com", "imagen_main": "", "municipio": "Derio", "provincia": "Bizkaia"}}, {"type": "Feature", "geometry": {"type": "Point", "coordinates": [-2.87352, 43.29519]}, "properties": {"nombre": "AGRUPACION DEPORTIVA GOLF DE DERIO", "url": "https://rfegolf.es/club/agrupacion_deportiva_golf_de_derio?id=915", "telefono": "618699329", "email": "deriogolf@gmail.com", "imagen_main": "https://assets.rfeg.es/static/assets/static/clubes/agrupacion_deportiva_golf_de_derio/agrupacion_deportiva_golf_de_derio_main.jpg", "municipio": "Derio", "provincia": "Bizkaia"}}, {"type": "Feature", "geometry": {"type": "Point", "coordinates": [-1.71111, 37.36109]}, "properties": {"nombre": "AGUILON GOLF", "url": "https://rfegolf.es/club/aguilon_golf?id=367", "telefono": "950109518", "email": "cmaster@aguilongolf.es", "imagen_main": "https://assets.rfeg.es/static/assets/static/clubes/aguilon_golf/aguilon_golf_main.jpg", "municipio": "Pulpí", "provincia": "Almería"}}, {"type": "Feature", "geometry": {"type": "Point", "coordinates": [-2.31838, 36.84555]}, "properties": {"nombre": "ALBORÁN GOLF", "url": "https://rfegolf.es/club/alboran_golf?id=348", "telefono": "950208583", "email": "alborangolf@alborangolf.com", "imagen_main": "https://assets.rfeg.es/static/assets/static/clubes/alboran_golf/alboran_golf_main.jpg", "municipio": "Almería", "provincia": "Almería"}}, {"type": "Feature", "geometry": {"type": "Point", "coordinates": [-4.68162, 41.50794]}, "properties": {"nombre": "ALDEAMAYOR CLUB DE GOLF", "url": "https://rfegolf.es/club/aldeamayor_club_de_golf?id=238", "telefono": "983552463", "email": "info@aldeamayorclub.com", "imagen_main": "https://assets.rfeg.es/static/assets/static/clubes/aldeamayor_club_de_golf/aldeamayor_club_de_golf_main.jpg", "municipio": "Aldeamayor de San Martín", "provincia": "Valladolid"}}, {"type": "Feature", "geometry": {"type": "Point", "coordinates": [-0.67238, 38.35949]}, "properties": {"nombre": "ALENDA GOLF CLUB", "url": "https://rfegolf.es/club/alenda_golf_club?id=820", "telefono": "965620521", "email": "cadymaster@alendagolf.com", "imagen_main": "https://assets.rfeg.es/static/assets/static/clubes/alenda_golf_club/alenda_golf_club_main.jpg", "municipio": "Monforte del Cid", "provincia": "Alacant / Alicante"}}, {"type": "Feature", "geometry": {"type": "Point", "coordinates": [-1.35918, 37.73532]}, "properties": {"nombre": "ALHAMA SIGNATURE", "url": "https://rfegolf.es/club/alhama_signature?id=556", "telefono": "968328008", "email": "info@alhamasignature.golf", "imagen_main": "https://assets.rfeg.es/static/assets/static/clubes/alhama_signature/alhama_signature_main.jpg", "municipio": "Alhama de Murcia", "provincia": "Región de Murcia"}}, {"type": "Feature", "geometry": {"type": "Point", "coordinates": [-4.70905, 36.61749]}, "properties": {"nombre": "ALHAURÍN GOLF HOTEL & RESORT", "url": "https://rfegolf.es/club/alhaurin_golf_hotel_&_resort?id=292", "telefono": "951500000", "email": "reservas@alhauringolf.com", "imagen_main": "https://assets.rfeg.es/static/assets/static/clubes/alhaurin_golf_hotel_&amp;_resort/alhaurin_golf_hotel_&amp;_resort_main.jpg", "municipio": "Alhaurín el Grande", "provincia": "Málaga"}}, {"type": "Feature", "geometry": {"type": "Point", "coordinates": [-0.42279, 38.3763]}, "properties": {"nombre": "ALICANTE GOLF COURSE", "url": "https://rfegolf.es/club/alicante_golf?id=535", "telefono": "965152043", "email": "greenfees@alicantegolf.com", "imagen_main": "https://assets.rfeg.es/static/assets/static/clubes/alicante_golf/alicante_golf_main.jpg", "municipio": "Alacant / Alicante", "provincia": "Alacant / Alicante"}}, {"type": "Feature", "geometry": {"type": "Point", "coordinates": [-5.35239, 36.27499]}, "properties": {"nombre": "ALMENARA  HOTEL - GOLF", "url": "https://rfegolf.es/club/almenara_hotel_golf?id=338", "telefono": "956582054", "email": "thealtoclub@sotogrande.com", "imagen_main": "https://assets.rfeg.es/static/assets/static/clubes/almenara_hotel_golf/almenara_hotel_golf_main.jpg", "municipio": "San Roque", "provincia": "Cádiz"}}, {"type": "Feature", "geometry": {"type": "Point", "coordinates": [-4.95896, 36.50727]}, "properties": {"nombre": "ALOHA GOLF", "url": "https://rfegolf.es/club/aloha_golf?id=307", "telefono": "952907085;952907086", "email": "reservas@clubdegolfaloha.com", "imagen_main": "https://assets.rfeg.es/static/assets/static/clubes/aloha_golf/aloha_golf_main.jpg", "municipio": "Marbella", "provincia": "Málaga"}}, {"type": "Feature", "geometry": {"type": "Point", "coordinates": [-0.03765, 38.63408]}, "properties": {"nombre": "ALTEA CLUB DE GOLF", "url": "https://rfegolf.es/club/altea_club_de_golf?id=510", "telefono": "965848046", "email": "info@alteagolfclub.com", "imagen_main": "https://assets.rfeg.es/static/assets/static/clubes/altea_club_de_golf/altea_club_de_golf_main.jpg", "municipio": "Altea", "provincia": "Alacant / Alicante"}}, {"type": "Feature", "geometry": {"type": "Point", "coordinates": [-16.61783, 28.03132]}, "properties": {"nombre": "AMARILLA GOLF CLUB", "url": "https://rfegolf.es/club/amarilla_golf_club?id=468", "telefono": "922730319", "email": "info@amarillagolf.es", "imagen_main": "https://assets.rfeg.es/static/assets/static/clubes/amarilla_golf_club/amarilla_golf_club_main.jpg", "municipio": "San Miguel de Abona", "provincia": "Santa Cruz de Tenerife"}}, {"type": "Feature", "geometry": {"type": "Point", "coordinates": [-15.71971, 27.80109]}, "properties": {"nombre": "ANFI TAURO GOLF", "url": "https://rfegolf.es/club/anfi_tauro_golf?id=482", "telefono": "928152990", "email": "proshopgolf@anfi.es", "imagen_main": "https://assets.rfeg.es/static/assets/static/clubes/anfi_tauro_golf/anfi_tauro_golf_main.jpg", "municipio": "Mogán", "provincia": "Las Palmas"}}, {"type": "Feature", "geometry": {"type": "Point", "coordinates": [-4.60013, 37.01881]}, "properties": {"nombre": "ANTEQUERA GOLF", "url": "https://rfegolf.es/club/antequera_golf?id=341", "telefono": "951060354", "email": "reservas@golfantequera.com", "imagen_main": "https://assets.rfeg.es/static/assets/static/clubes/antequera_golf/antequera_golf_main.jpg", "municipio": "Antequera", "provincia": "Málaga"}}, {"type": "Feature", "geometry": {"type": "Point", "coordinates": [1.40568, 42.36012]}, "properties": {"nombre": "ARAVELL GOLF CLUB & COUNTRY CLUB", "url": "https://rfegolf.es/club/aravell_golf_club_&_country_club?id=420", "telefono": "973360066", "email": "secretaria@aravellgolfclub.com", "imagen_main": "https://assets.rfeg.es/static/assets/static/clubes/aravell_golf_club_&amp;_country_club/aravell_golf_club_&amp;_country_club_main.jpg", "municipio": "Montferrer i Castellbò", "provincia": "Lleida"}}, {"type": "Feature", "geometry": {"type": "Point", "coordinates": [-5.76254, 36.72613]}, "properties": {"nombre": "ARCOS GOLF", "url": "https://rfegolf.es/club/arcos_golf?id=168", "telefono": "956704131", "email": "info@arcogardensgolf.es", "imagen_main": "https://assets.rfeg.es/static/assets/static/clubes/arcos_golf/arcos_golf_main.jpg", "municipio": "Arcos de la Frontera", "provincia": "Cádiz"}}, {"type": "Feature", "geometry": {"type": "Point", "coordinates": [-0.94771, 41.62338]}, "properties": {"nombre": "ARCOSUR GOLF", "url": "https://rfegolf.es/club/arcosur_golf?id=1069", "telefono": "876662020", "email": "admin@arcosuresgolf.com", "imagen_main": "https://assets.rfeg.es/static/assets/static/clubes/arcosur_golf/arcosur_golf_main.jpg", "municipio": "Zaragoza", "provincia": "Zaragoza"}}, {"type": "Feature", "geometry": {"type": "Point", "coordinates": [-4.8005, 37.9045]}, "properties": {"nombre": "ARRUZAFA GOLF", "url": "https://rfegolf.es/club/arruzafa_golf?id=1118", "telefono": "609883441", "email": "info@arruzafagolf.com", "imagen_main": "", "municipio": "Córdoba", "provincia": "Córdoba"}}, {"type": "Feature", "geometry": {"type": "Point", "coordinates": [2.1514, 41.39647]}, "properties": {"nombre": "ASOCIACIO CATALANA DE PERIODISTES", "url": "https://rfegolf.es/club/asociacio_catalana_de_periodistes?id=646", "telefono": "934145262", "email": "info@periodistesgolf.cat", "imagen_main": "https://assets.rfeg.es/static/assets/static/clubes/asociacio_catalana_de_periodistes/asociacio_catalana_de_periodistes_main.jpg", "municipio": "Barcelona", "provincia": "Barcelona"}}, {"type": "Feature", "geometry": {"type": "Point", "coordinates": [-4.11834, 40.55085]}, "properties": {"nombre": "ASOCIACION DE GOLF VILLA EL ESCORIAL", "url": "https://rfegolf.es/club/asociacion_de_golf_villa_el_escorial?id=457", "telefono": "918903637;639359921", "email": "info@golfescorial.es", "imagen_main": "https://assets.rfeg.es/static/assets/static/clubes/asociacion_de_golf_villa_el_escorial/asociacion_de_golf_villa_el_escorial_main.jpg", "municipio": "El Escorial", "provincia": "Comunidad de Madrid"}}, {"type": "Feature", "geometry": {"type": "Point", "coordinates": [-5.58554, 39.99489]}, "properties": {"nombre": "ASOCIACIÓN DE GOLF TALAYUELA", "url": "https://rfegolf.es/club/asociacion_de_golf_talayuela?id=608", "telefono": "927667024", "email": "contacto@talayuelagolf.com", "imagen_main": "https://assets.rfeg.es/static/assets/static/clubes/asociacion_de_golf_talayuela/asociacion_de_golf_talayuela_main.jpg", "municipio": "Talayuela", "provincia": "Cáceres"}}, {"type": "Feature", "geometry": {"type": "Point", "coordinates": [-4.49973, 36.62515]}, "properties": {"nombre": "ASOCIACIÓN DE SENIORS DE GOLF DE  ANDALUCÍA", "url": "https://rfegolf.es/club/asociacion_de_seniors_de_golf_de_andalucia?id=632", "telefono": "609472271", "email": "asga@asga-golf.com", "imagen_main": "https://assets.rfeg.es/static/assets/static/clubes/asociacion_de_seniors_de_golf_de_andalucia/asociacion_de_seniors_de_golf_de_andalucia_main.jpg", "municipio": "Torremolinos", "provincia": "Málaga"}}, {"type": "Feature", "geometry": {"type": "Point", "coordinates": [-8.24452, 42.69545]}, "properties": {"nombre": "Asociación Deportiva Exilieta", "url": "https://rfegolf.es/club/asociacion_deportiva_exilieta?id=1075", "telefono": "669245165", "email": "pacoporto@gestores.net", "imagen_main": "https://assets.rfeg.es/static/assets/static/clubes/asociacion_deportiva_exilieta/asociacion_deportiva_exilieta_main.jpg", "municipio": "Silleda", "provincia": "Pontevedra"}}, {"type": "Feature", "geometry": {"type": "Point", "coordinates": [-3.66638, 40.47617]}, "properties": {"nombre": "ASSOCIACIO DEL PERSONAL LA CAIXA GOLF", "url": "https://rfegolf.es/club/associacio_del_personal_la_caixa_golf?id=661", "telefono": "670282216", "email": "golfbcn@gmail.com", "imagen_main": "https://assets.rfeg.es/static/assets/static/clubes/associacio_del_personal_la_caixa_golf/associacio_del_personal_la_caixa_golf_main.jpg", "municipio": "Madrid", "provincia": "Comunidad de Madrid"}}, {"type": "Feature", "geometry": {"type": "Point", "coordinates": [-5.01762, 36.48134]}, "properties": {"nombre": "ATALAYA GOLF & COUNTRY CLUB INTERNACIONAL, S.A.", "url": "https://rfegolf.es/club/atalaya_golf_&_country_club_internacional_sa?id=304", "telefono": "952882812", "email": "info@atalaya-golf.com", "imagen_main": "https://assets.rfeg.es/static/assets/static/clubes/atalaya_golf_&amp;_country_club_internacional_sa/atalaya_golf_&amp;_country_club_internacional_sa_main.jpg", "municipio": "Estepona", "provincia": "Málaga"}}, {"type": "Feature", "geometry": {"type": "Point", "coordinates": [-5.20184, 36.42229]}, "properties": {"nombre": "AZATA GOLF", "url": "https://rfegolf.es/club/azata_golf?id=1100", "telefono": "952118373", "email": "reservas@azatagolf.com", "imagen_main": "https://assets.rfeg.es/static/assets/static/clubes/azata_golf/azata_golf_main.jpg", "municipio": "Estepona", "provincia": "Málaga"}}, {"type": "Feature", "geometry": {"type": "Point", "coordinates": [-1.09588, 39.2357]}, "properties": {"nombre": "BALNEARIO DE COFRENTES CLUB DE GOLF", "url": "https://rfegolf.es/club/balneario_de_cofrentes_club_de_golf?id=520", "telefono": "650389181", "email": "joseantonio@balneario.com", "imagen_main": "https://assets.rfeg.es/static/assets/static/clubes/balneario_de_cofrentes_club_de_golf/balneario_de_cofrentes_club_de_golf_main.jpg", "municipio": "Cofrentes", "provincia": "València / Valencia"}}, {"type": "Feature", "geometry": {"type": "Point", "coordinates": [-4.94944, 36.50287]}, "properties": {"nombre": "BANUS EXECUTIVE GOLF", "url": "https://rfegolf.es/club/banus_executive_golf?id=333", "telefono": "951560972", "email": "info@banus.golf", "imagen_main": "https://assets.rfeg.es/static/assets/static/clubes/banus_executive_golf/banus_executive_golf_main.jpg", "municipio": "Marbella", "provincia": "Málaga"}}, {"type": "Feature", "geometry": {"type": "Point", "coordinates": [-4.068, 36.75919]}, "properties": {"nombre": "BAVIERA GOLF", "url": "https://rfegolf.es/club/baviera_golf_sa?id=308", "telefono": "952555015", "email": "info@bavieragolf.com", "imagen_main": "https://assets.rfeg.es/static/assets/static/clubes/baviera_golf_sa/baviera_golf_sa_main.jpg", "municipio": "Vélez-Málaga", "provincia": "Málaga"}}, {"type": "Feature", "geometry": {"type": "Point", "coordinates": [-4.55757, 36.60166]}, "properties": {"nombre": "BENALMADENA GOLF", "url": "https://rfegolf.es/club/benalmadena_golf?id=349", "telefono": "637504858", "email": "info@benalmadenagolf.com", "imagen_main": "https://assets.rfeg.es/static/assets/static/clubes/benalmadena_golf/benalmadena_golf_main.jpg", "municipio": "Benalmádena", "provincia": "Málaga"}}, {"type": "Feature", "geometry": {"type": "Point", "coordinates": [0.52353, 42.6039]}, "properties": {"nombre": "BENASQUE CLUB, S.A", "url": "https://rfegolf.es/club/benasque_club_sa?id=176", "telefono": "974552984", "email": "golfbenasqueclub@arrakis.es", "imagen_main": "https://assets.rfeg.es/static/assets/static/clubes/benasque_club_sa/benasque_club_sa_main.jpg", "municipio": "Benasque", "provincia": "Huesca"}}, {"type": "Feature", "geometry": {"type": "Point", "coordinates": [-0.09854, 38.54778]}, "properties": {"nombre": "BENIDORM CLUB DE GOLF", "url": "https://rfegolf.es/club/benidorm_club_de_golf?id=699", "telefono": "666026498", "email": "info@benidormgolfsociety.com", "imagen_main": "https://assets.rfeg.es/static/assets/static/clubes/benidorm_club_de_golf/benidorm_club_de_golf_main.jpg", "municipio": "Benidorm", "provincia": "Alacant / Alicante"}}, {"type": "Feature", "geometry": {"type": "Point", "coordinates": [-4.55433, 36.59666]}, "properties": {"nombre": "BIL BIL GOLF", "url": "https://rfegolf.es/club/bil_bil_golf?id=816", "telefono": "951295287", "email": "reservas@bilbilhouse.com", "imagen_main": "https://assets.rfeg.es/static/assets/static/clubes/bil_bil_golf/bil_bil_golf_main.jpg", "municipio": "Benalmádena", "provincia": "Málaga"}}, {"type": "Feature", "geometry": {"type": "Point", "coordinates": [-16.86357, 28.37201]}, "properties": {"nombre": "BUENAVISTA GOLF", "url": "https://rfegolf.es/club/buenavista_golf?id=476", "telefono": "922129034", "email": "reservas@buenavistagolf.es", "imagen_main": "https://assets.rfeg.es/static/assets/static/clubes/buenavista_golf/buenavista_golf_main.jpg", "municipio": "Buenavista del Norte", "provincia": "Santa Cruz de Tenerife"}}, {"type": "Feature", "geometry": {"type": "Point", "coordinates": [-3.70014, 40.42346]}, "properties": {"nombre": "C. GOLF ARQUITECTOS COMUNIDAD VALENCIANA", "url": "https://rfegolf.es/club/c_golf_arquitectos_comunidad_valenciana?id=706", "telefono": "963516737;963600195", "email": "", "imagen_main": "https://assets.rfeg.es/static/assets/static/clubes/c_golf_arquitectos_comunidad_valenciana/c_golf_arquitectos_comunidad_valenciana_main.jpg", "municipio": "Madrid", "provincia": "Comunidad de Madrid"}}, {"type": "Feature", "geometry": {"type": "Point", "coordinates": [-4.5334, 42.00127]}, "properties": {"nombre": "C. MUNICIPAL DE GOLF ISLA DOS AGUAS", "url": "https://rfegolf.es/club/c_municipal_de_golf_isla_dos_aguas?id=222", "telefono": "979721716", "email": "golfisladosaguas@pmdpalencia.com", "imagen_main": "https://assets.rfeg.es/static/assets/static/clubes/c_municipal_de_golf_isla_dos_aguas/c_municipal_de_golf_isla_dos_aguas_main.jpg", "municipio": "Palencia", "provincia": "Palencia"}}, {"type": "Feature", "geometry": {"type": "Point", "coordinates": [-8.87768, 42.7171]}, "properties": {"nombre": "C.D. Barbanza Pitch and Putt", "url": "https://rfegolf.es/club/cd_barbanza_pitch_and_putt?id=1060", "telefono": "651172946;676285438", "email": "barbanzagolf@gmail.com", "imagen_main": "https://assets.rfeg.es/static/assets/static/clubes/cd_barbanza_pitch_and_putt/cd_barbanza_pitch_and_putt_main.jpg", "municipio": "Boiro", "provincia": "A Coruña"}}, {"type": "Feature", "geometry": {"type": "Point", "coordinates": [-16.77088, 28.13357]}, "properties": {"nombre": "C.D. CALLAO SALVAJE", "url": "https://rfegolf.es/club/cd_callao_salvaje?id=1084", "telefono": "971439530", "email": "info@hotetec.com", "imagen_main": "https://assets.rfeg.es/static/assets/static/clubes/cd_callao_salvaje/cd_callao_salvaje_main.jpg", "municipio": "Adeje", "provincia": "Santa Cruz de Tenerife"}}, {"type": "Feature", "geometry": {"type": "Point", "coordinates": [-6.288596200000029, 36.5270612]}, "properties": {"nombre": "C.D. CÁDIZ CLUB DE GOLF", "url": "https://rfegolf.es/club/cd_cadiz_club_de_golf?id=628", "telefono": "687990064", "email": "cadizgolf@cadizgolf.es", "imagen_main": "https://assets.rfeg.es/static/assets/static/clubes/cd_cadiz_club_de_golf/cd_cadiz_club_de_golf_main.jpg", "municipio": "Cádiz", "provincia": "Cádiz"}}, {"type": "Feature", "geometry": {"type": "Point", "coordinates": [-4.82244, 40.10852]}, "properties": {"nombre": "C.D. GUADYERBAS GOLF", "url": "https://rfegolf.es/club/cd_guadyerbas_golf?id=1079", "telefono": "925875860", "email": "guadyerbasgolf@gmail.com", "imagen_main": "https://assets.rfeg.es/static/assets/static/clubes/cd_guadyerbas_golf/cd_guadyerbas_golf_main.jpg", "municipio": "Sotillo de las Palomas", "provincia": "Toledo"}}, {"type": "Feature", "geometry": {"type": "Point", "coordinates": [-3.2025146484375, 39.3937545922435]}, "properties": {"nombre": "C.D. HIDALGO CLUB GOLF A.S.JUAN", "url": "https://rfegolf.es/club/cd_hidalgo_club_golf_asjuan?id=607", "telefono": "655885572", "email": "info@elhidalgo.es", "imagen_main": "https://assets.rfeg.es/static/assets/static/clubes/cd_hidalgo_club_golf_asjuan/cd_hidalgo_club_golf_asjuan_main.jpg", "municipio": "Alcázar de San Juan", "provincia": "Ciudad Real"}}, {"type": "Feature", "geometry": {"type": "Point", "coordinates": [-4.05663, 40.9163]}, "properties": {"nombre": "C.D. LA FAISANERA GOLF SEGOVIA", "url": "https://rfegolf.es/club/cd_la_faisanera_golf_segovia?id=885", "telefono": "921474212", "email": "reservas@lafaisaneragolf.es", "imagen_main": "https://assets.rfeg.es/static/assets/static/clubes/cd_la_faisanera_golf_segovia/cd_la_faisanera_golf_segovia_main.jpg", "municipio": "Palazuelos de Eresma", "provincia": "Segovia"}}, {"type": "Feature", "geometry": {"type": "Point", "coordinates": [-3.75867, 41.09592]}, "properties": {"nombre": "C.D. LOS CANCHORRALES", "url": "https://rfegolf.es/club/cd_los_canchorrales?id=1082", "telefono": "628178382", "email": "", "imagen_main": "https://assets.rfeg.es/static/assets/static/clubes/cd_los_canchorrales/cd_los_canchorrales_main.jpg", "municipio": "Matabuena", "provincia": "Segovia"}}, {"type": "Feature", "geometry": {"type": "Point", "coordinates": [-3.75726, 40.49211]}, "properties": {"nombre": "C.D. Somontes Moonmasters", "url": "https://rfegolf.es/club/cd_somontes_moonmasters?id=1080", "telefono": "913163434", "email": "golfsomontes@cdsomontes.com", "imagen_main": "https://assets.rfeg.es/static/assets/static/clubes/cd_somontes_moonmasters/cd_somontes_moonmasters_main.jpg", "municipio": "Madrid", "provincia": "Comunidad de Madrid"}}, {"type": "Feature", "geometry": {"type": "Point", "coordinates": [-4.62951, 36.53223]}, "properties": {"nombre": "C.D. TAMISUEL GOLF", "url": "https://rfegolf.es/club/cd_tamisuel_golf?id=637", "telefono": "952464881;607508888", "email": "capitan@tamisuel.es", "imagen_main": "https://assets.rfeg.es/static/assets/static/clubes/cd_tamisuel_golf/cd_tamisuel_golf_main.jpg", "municipio": "Fuengirola", "provincia": "Málaga"}}, {"type": "Feature", "geometry": {"type": "Point", "coordinates": [-3.63403, 40.56831]}, "properties": {"nombre": "C.D.E. DE GOLF SAN SEBASTIÁN DE LOS REYES", "url": "https://rfegolf.es/club/cde_de_golf_san_sebastian_de_los_reyes?id=1009", "telefono": "678668545", "email": "info@golfssrr.com", "imagen_main": "https://assets.rfeg.es/static/assets/static/clubes/cde_de_golf_san_sebastian_de_los_reyes/cde_de_golf_san_sebastian_de_los_reyes_main.jpg", "municipio": "San Sebastián de los Reyes", "provincia": "Comunidad de Madrid"}}, {"type": "Feature", "geometry": {"type": "Point", "coordinates": [-3.03773, 40.73168]}, "properties": {"nombre": "C.D.E. TORIJA GOLF CLUB", "url": "https://rfegolf.es/club/cde_torija_golf_club?id=881", "telefono": "691207472", "email": "torija.golf@hotmail.es", "imagen_main": "https://assets.rfeg.es/static/assets/static/clubes/cde_torija_golf_club/cde_torija_golf_club_main.jpg", "municipio": "Torija", "provincia": "Guadalajara"}}, {"type": "Feature", "geometry": {"type": "Point", "coordinates": [-2.96997, 35.28901]}, "properties": {"nombre": "C.D.E.AMIGOS DEL GOLF DE MELILLA", "url": "https://rfegolf.es/club/cdeamigos_del_golf_de_melilla?id=712", "telefono": "660308843;631074189", "email": "amigosdelgolfmelilla@gmail.com", "imagen_main": "https://assets.rfeg.es/static/assets/static/clubes/cdeamigos_del_golf_de_melilla/cdeamigos_del_golf_de_melilla_main.jpg", "municipio": "Melilla", "provincia": "Melilla"}}, {"type": "Feature", "geometry": {"type": "Point", "coordinates": [-3.80284, 40.36805]}, "properties": {"nombre": "C.D.S.C.E.A. BARBERAN Y COLLAR", "url": "https://rfegolf.es/club/cdscea_barberan_y_collar?id=435", "telefono": "915091140", "email": "barberan@mde.es", "imagen_main": "https://assets.rfeg.es/static/assets/static/clubes/cdscea_barberan_y_collar/cdscea_barberan_y_collar_main.jpg", "municipio": "Madrid", "provincia": "Comunidad de Madrid"}}, {"type": "Feature", "geometry": {"type": "Point", "coordinates": [2.28076, 41.66266]}, "properties": {"nombre": "C.G. LA GARRIGA ROSANES", "url": "https://rfegolf.es/club/cg_la_garriga_rosanes?id=1086", "telefono": "938718959", "email": "golflagarriga@gmail.com", "imagen_main": "https://assets.rfeg.es/static/assets/static/clubes/cg_la_garriga_rosanes/cg_la_garriga_rosanes_main.jpg", "municipio": "la Garriga", "provincia": "Barcelona"}}, {"type": "Feature", "geometry": {"type": "Point", "coordinates": [-4.74032, 36.49399]}, "properties": {"nombre": "CABOPINO GOLF MARBELLA", "url": "https://rfegolf.es/club/cabopino_golf_marbella?id=1042", "telefono": "951607004;638927271", "email": "reservas@cabopinogolfmarbella.com", "imagen_main": "https://assets.rfeg.es/static/assets/static/clubes/cabopino_golf_marbella/cabopino_golf_marbella_main.jpg", "municipio": "Marbella", "provincia": "Málaga"}}, {"type": "Feature", "geometry": {"type": "Point", "coordinates": [-4.71191, 36.51396]}, "properties": {"nombre": "CALANOVA GOLF CLUB", "url": "https://rfegolf.es/club/calanova_golf_club?id=1057", "telefono": "951170194", "email": "admin@calanovagolfclub.com", "imagen_main": "https://assets.rfeg.es/static/assets/static/clubes/calanova_golf_club/calanova_golf_club_main.jpg", "municipio": "Mijas", "provincia": "Málaga"}}, {"type": "Feature", "geometry": {"type": "Point", "coordinates": [2.76336, 41.85725]}, "properties": {"nombre": "CAMIRAL", "url": "https://rfegolf.es/club/pga_catalunya_resort?id=423", "telefono": "972472249", "email": "reservations@pgacatalunya.com", "imagen_main": "https://assets.rfeg.es/static/assets/static/clubes/pga_catalunya_resort/pga_catalunya_resort_main.jpg", "municipio": "Caldes de Malavella", "provincia": "Girona"}}, {"type": "Feature", "geometry": {"type": "Point", "coordinates": [0.02063, 38.81667]}, "properties": {"nombre": "CAMPBELL LAMONT GOLF CLUB", "url": "https://rfegolf.es/club/campbell_lamont_golf_club?id=1051", "telefono": "965996244", "email": "info@clgolf.es", "imagen_main": "https://assets.rfeg.es/static/assets/static/clubes/campbell_lamont_golf_club/campbell_lamont_golf_club_main.jpg", "municipio": "Ondara", "provincia": "Alacant / Alicante"}}, {"type": "Feature", "geometry": {"type": "Point", "coordinates": [-16.7926, 28.17084]}, "properties": {"nombre": "CAMPO DE GOLF ABAMA", "url": "https://rfegolf.es/club/campo_de_golf_abama?id=478", "telefono": "922589623", "email": "info@abamagolf.com", "imagen_main": "https://assets.rfeg.es/static/assets/static/clubes/campo_de_golf_abama/campo_de_golf_abama_main.jpg", "municipio": "Guía de Isora", "provincia": "Santa Cruz de Tenerife"}}, {"type": "Feature", "geometry": {"type": "Point", "coordinates": [-1.10389, 37.87702]}, "properties": {"nombre": "CAMPO DE GOLF ALTAONA", "url": "https://rfegolf.es/club/campo_de_golf_altaona?id=545", "telefono": "968952844", "email": "golf@altaonavillage.com", "imagen_main": "https://assets.rfeg.es/static/assets/static/clubes/campo_de_golf_altaona/campo_de_golf_altaona_main.jpg", "municipio": "Murcia", "provincia": "Región de Murcia"}}, {"type": "Feature", "geometry": {"type": "Point", "coordinates": [-3.47248, 40.46571]}, "properties": {"nombre": "CAMPO DE GOLF B.A. DE TORREJON", "url": "https://rfegolf.es/club/campo_de_golf_ba_de_torrejon?id=443", "telefono": "916274474;916274739", "email": "campo_golf_ba_torrejon@mde.es", "imagen_main": "https://assets.rfeg.es/static/assets/static/clubes/campo_de_golf_ba_de_torrejon/campo_de_golf_ba_de_torrejon_main.jpg", "municipio": "Torrejón de Ardoz", "provincia": "Comunidad de Madrid"}}, {"type": "Feature", "geometry": {"type": "Point", "coordinates": [-8.48717, 42.22561]}, "properties": {"nombre": "CAMPO DE GOLF BALNEARIO DE MONDARIZ", "url": "https://rfegolf.es/club/campo_de_golf_balneario_de_mondariz?id=491", "telefono": "986656156", "email": "golfmondariz@balneariodemondariz.com", "imagen_main": "https://assets.rfeg.es/static/assets/static/clubes/campo_de_golf_balneario_de_mondariz/campo_de_golf_balneario_de_mondariz_main.jpg", "municipio": "Ponteareas", "provincia": "Pontevedra"}}, {"type": "Feature", "geometry": {"type": "Point", "coordinates": [3.43246, 39.67373]}, "properties": {"nombre": "CAMPO DE GOLF CANYAMEL", "url": "https://rfegolf.es/club/campo_de_golf_canyamel?id=379", "telefono": "971841313", "email": "casaclub@canyamelgolf.com", "imagen_main": "https://assets.rfeg.es/static/assets/static/clubes/campo_de_golf_canyamel/campo_de_golf_canyamel_main.jpg", "municipio": "Capdepera", "provincia": "Illes Balears"}}, {"type": "Feature", "geometry": {"type": "Point", "coordinates": [-3.95935, 43.44176]}, "properties": {"nombre": "CAMPO DE GOLF CELIA BARQUÍN ABRA DEL PAS", "url": "https://rfegolf.es/club/campo_de_golf_abra_del_pas?id=202", "telefono": "942318950", "email": "", "imagen_main": "https://assets.rfeg.es/static/assets/static/clubes/campo_de_golf_abra_del_pas/campo_de_golf_abra_del_pas_main.jpg", "municipio": "Miengo", "provincia": "Cantabria"}}, {"type": "Feature", "geometry": {"type": "Point", "coordinates": [-15.59184, 27.7514]}, "properties": {"nombre": "CAMPO DE GOLF DE MASPALOMAS", "url": "https://rfegolf.es/club/campo_de_golf_de_maspalomas?id=465", "telefono": "928762581", "email": "reservas@maspalomasgolf.net", "imagen_main": "https://assets.rfeg.es/static/assets/static/clubes/campo_de_golf_de_maspalomas/campo_de_golf_de_maspalomas_main.jpg", "municipio": "San Bartolomé de Tirajana", "provincia": "Las Palmas"}}, {"type": "Feature", "geometry": {"type": "Point", "coordinates": [-4.328, 43.38761]}, "properties": {"nombre": "CAMPO DE GOLF DE OYAMBRE", "url": "https://rfegolf.es/club/campo_de_golf_de_oyambre?id=206", "telefono": "647335167", "email": "realgolfcluboyambre@gmail.com", "imagen_main": "https://assets.rfeg.es/static/assets/static/clubes/campo_de_golf_de_oyambre/campo_de_golf_de_oyambre_main.jpg", "municipio": "Valdáliga", "provincia": "Cantabria"}}, {"type": "Feature", "geometry": {"type": "Point", "coordinates": [-5.842686, 41.016711]}, "properties": {"nombre": "CAMPO DE GOLF DE SALAMANCA", "url": "https://rfegolf.es/club/campo_de_golf_de_salamanca?id=218", "telefono": "923329100;923337011", "email": "zarapicos@salamancagolf.com", "imagen_main": "https://assets.rfeg.es/static/assets/static/clubes/campo_de_golf_de_salamanca/campo_de_golf_de_salamanca_main.jpg", "municipio": "Zarapicos", "provincia": "Salamanca"}}, {"type": "Feature", "geometry": {"type": "Point", "coordinates": [-5.58554, 39.99489]}, "properties": {"nombre": "CAMPO DE GOLF DE TALAYUELA", "url": "https://rfegolf.es/club/campo_de_golf_de_talayuela?id=274", "telefono": "927667024", "email": "contacto@talayuelagolf.com", "imagen_main": "https://assets.rfeg.es/static/assets/static/clubes/campo_de_golf_de_talayuela/campo_de_golf_de_talayuela_main.jpg", "municipio": "Talayuela", "provincia": "Cáceres"}}, {"type": "Feature", "geometry": {"type": "Point", "coordinates": [-5.64384, 41.79147]}, "properties": {"nombre": "CAMPO DE GOLF DE VILLARRIN", "url": "https://rfegolf.es/club/campo_de_golf_de_villarrin?id=174", "telefono": "980580189", "email": "golfvillarrin@gmail.com", "imagen_main": "https://assets.rfeg.es/static/assets/static/clubes/campo_de_golf_de_villarrin/campo_de_golf_de_villarrin_main.jpg", "municipio": "Villarrín de Campos", "provincia": "Zamora"}}, {"type": "Feature", "geometry": {"type": "Point", "coordinates": [-5.91018, 36.23567]}, "properties": {"nombre": "CAMPO DE GOLF DEHESA MONTENMEDIO", "url": "https://rfegolf.es/club/campo_de_golf_dehesa_montenmedio?id=294", "telefono": "956455004", "email": "mll@dehesamontenmedio.com", "imagen_main": "https://assets.rfeg.es/static/assets/static/clubes/campo_de_golf_dehesa_montenmedio/campo_de_golf_dehesa_montenmedio_main.jpg", "municipio": "Barbate", "provincia": "Cádiz"}}, {"type": "Feature", "geometry": {"type": "Point", "coordinates": [-7.394, 42.77063]}, "properties": {"nombre": "CAMPO DE GOLF EL PILAR-SARRIA", "url": "https://rfegolf.es/club/campo_de_golf_el_pilar_sarria?id=973", "telefono": "652982456", "email": "golfsarria@gmail.com", "imagen_main": "https://assets.rfeg.es/static/assets/static/clubes/campo_de_golf_el_pilar_sarria/campo_de_golf_el_pilar_sarria_main.jpg", "municipio": "Sarria", "provincia": "Lugo"}}, {"type": "Feature", "geometry": {"type": "Point", "coordinates": [-0.30191, 39.32075]}, "properties": {"nombre": "CAMPO DE GOLF EL SALER", "url": "https://rfegolf.es/club/campo_de_golf_el_saler?id=528", "telefono": "961611186", "email": "saler.golf@parador.es", "imagen_main": "https://assets.rfeg.es/static/assets/static/clubes/campo_de_golf_el_saler/campo_de_golf_el_saler_main.jpg", "municipio": "València", "provincia": "València / Valencia"}}, {"type": "Feature", "geometry": {"type": "Point", "coordinates": [-0.35604, 39.08322]}, "properties": {"nombre": "CAMPO DE GOLF LA GALIANA", "url": "https://rfegolf.es/club/campo_de_golf_la_galiana?id=917", "telefono": "961103838", "email": "reservas@lagalianagolf.com", "imagen_main": "https://assets.rfeg.es/static/assets/static/clubes/campo_de_golf_la_galiana/campo_de_golf_la_galiana_main.jpg", "municipio": "Carcaixent", "provincia": "València / Valencia"}}, {"type": "Feature", "geometry": {"type": "Point", "coordinates": [-16.71845, 28.06244]}, "properties": {"nombre": "CAMPO DE GOLF LAS AMERICAS", "url": "https://rfegolf.es/club/campo_de_golf_las_americas?id=469", "telefono": "922752005", "email": "reservas@golf-tenerife.com", "imagen_main": "https://assets.rfeg.es/static/assets/static/clubes/campo_de_golf_las_americas/campo_de_golf_las_americas_main.jpg", "municipio": "Arona", "provincia": "Santa Cruz de Tenerife"}}, {"type": "Feature", "geometry": {"type": "Point", "coordinates": [-0.7726, 37.91689]}, "properties": {"nombre": "CAMPO DE GOLF LAS RAMBLAS DE CAMPOAMOR", "url": "https://rfegolf.es/club/campo_de_golf_las_ramblas_de_campoamor?id=537", "telefono": "966774728", "email": "info@lasramblasgolf.com", "imagen_main": "https://assets.rfeg.es/static/assets/static/clubes/campo_de_golf_las_ramblas_de_campoamor/campo_de_golf_las_ramblas_de_campoamor_main.jpg", "municipio": "Orihuela", "provincia": "Alacant / Alicante"}}, {"type": "Feature", "geometry": {"type": "Point", "coordinates": [-0.82343, 37.88267]}, "properties": {"nombre": "CAMPO DE GOLF LO ROMERO", "url": "https://rfegolf.es/club/campo_de_golf_lo_romero?id=521", "telefono": "966766887;616478869", "email": "info@loromerogolf.com", "imagen_main": "https://assets.rfeg.es/static/assets/static/clubes/campo_de_golf_lo_romero/campo_de_golf_lo_romero_main.jpg", "municipio": "Pilar de la Horadada", "provincia": "Alacant / Alicante"}}, {"type": "Feature", "geometry": {"type": "Point", "coordinates": [-16.68059, 28.0386]}, "properties": {"nombre": "CAMPO DE GOLF LOS PALOS", "url": "https://rfegolf.es/club/campo_de_golf_los_palos?id=819", "telefono": "922169080", "email": "mail@golflospalos.com", "imagen_main": "https://assets.rfeg.es/static/assets/static/clubes/campo_de_golf_los_palos/campo_de_golf_los_palos_main.jpg", "municipio": "Arona", "provincia": "Santa Cruz de Tenerife"}}, {"type": "Feature", "geometry": {"type": "Point", "coordinates": [-3.06293, 43.2883]}, "properties": {"nombre": "CAMPO DE GOLF MEAZTEGI S.A.", "url": "https://rfegolf.es/club/campo_de_golf_meaztegi_sa?id=799", "telefono": "946364370", "email": "recepcion@meaztegigolf.eus", "imagen_main": "https://assets.rfeg.es/static/assets/static/clubes/campo_de_golf_meaztegi_sa/campo_de_golf_meaztegi_sa_main.jpg", "municipio": "Ortuella", "provincia": "Bizkaia"}}, {"type": "Feature", "geometry": {"type": "Point", "coordinates": [-8.39859, 43.38534]}, "properties": {"nombre": "CAMPO DE GOLF MUNICIPAL TORRE DE HERCULES", "url": "https://rfegolf.es/club/campo_de_golf_municipal_torre_de_hercules?id=501", "telefono": "981209680", "email": "golflatorre@centrosupera.com", "imagen_main": "https://assets.rfeg.es/static/assets/static/clubes/campo_de_golf_municipal_torre_de_hercules/campo_de_golf_municipal_torre_de_hercules_main.jpg", "municipio": "A Coruña", "provincia": "A Coruña"}}, {"type": "Feature", "geometry": {"type": "Point", "coordinates": [-4.16073, 42.99076]}, "properties": {"nombre": "CAMPO DE GOLF NESTARES", "url": "https://rfegolf.es/club/campo_de_golf_nestares?id=887", "telefono": "942310708", "email": "golfnestares@cantur.com", "imagen_main": "https://assets.rfeg.es/static/assets/static/clubes/campo_de_golf_nestares/campo_de_golf_nestares_main.jpg", "municipio": "Campoo de Enmedio", "provincia": "Cantabria"}}, {"type": "Feature", "geometry": {"type": "Point", "coordinates": [-0.0605, 38.89548]}, "properties": {"nombre": "CAMPO DE GOLF OLIVA-NOVA", "url": "https://rfegolf.es/club/campo_de_golf_oliva_nova?id=529", "telefono": "962857944", "email": "proshop@olivanova.com", "imagen_main": "https://assets.rfeg.es/static/assets/static/clubes/campo_de_golf_oliva_nova/campo_de_golf_oliva_nova_main.jpg", "municipio": "Oliva", "provincia": "València / Valencia"}}, {"type": "Feature", "geometry": {"type": "Point", "coordinates": [-0.70664, 40.34938]}, "properties": {"nombre": "CAMPO MUNICIPAL DE GOLF EL CASTILLEJO", "url": "https://rfegolf.es/club/campo_municipal_de_golf_el_castillejo?id=180", "telefono": "978801000", "email": "contacto@golfelcastillejo.es", "imagen_main": "https://assets.rfeg.es/static/assets/static/clubes/campo_municipal_de_golf_el_castillejo/campo_municipal_de_golf_el_castillejo_main.jpg", "municipio": "Alcalá de la Selva", "provincia": "Teruel"}}, {"type": "Feature", "geometry": {"type": "Point", "coordinates": [-2.54037, 38.95061]}, "properties": {"nombre": "CAMPO MUNICIPAL DE GOLF LA LAGUNILLA", "url": "https://rfegolf.es/club/campo_municipal_de_golf_la_lagunilla?id=266", "telefono": "967370001;687025965", "email": "golflagunilla@elbonillo.es", "imagen_main": "https://assets.rfeg.es/static/assets/static/clubes/campo_municipal_de_golf_la_lagunilla/campo_municipal_de_golf_la_lagunilla_main.jpg", "municipio": "El Bonillo", "provincia": "Albacete"}}, {"type": "Feature", "geometry": {"type": "Point", "coordinates": [-3.79072, 43.48524]}, "properties": {"nombre": "CAMPO MUNICIPAL DE MATALEÑAS", "url": "https://rfegolf.es/club/campo_municipal_de_matalenas?id=203", "telefono": "942392775", "email": "imd-golf@santander.es", "imagen_main": "https://assets.rfeg.es/static/assets/static/clubes/campo_municipal_de_matalenas/campo_municipal_de_matalenas_main.jpg", "municipio": "Santander", "provincia": "Cantabria"}}, {"type": "Feature", "geometry": {"type": "Point", "coordinates": [-6.28213, 40.00548]}, "properties": {"nombre": "CAMPO MUNICIPAL GALISTEO GOLF", "url": "https://rfegolf.es/club/campo_municipal_galisteo_golf?id=932", "telefono": "609510076", "email": "carlostayo@gmail.com", "imagen_main": "https://assets.rfeg.es/static/assets/static/clubes/campo_municipal_galisteo_golf/campo_municipal_galisteo_golf_main.jpg", "municipio": "Galisteo", "provincia": "Cáceres"}}, {"type": "Feature", "geometry": {"type": "Point", "coordinates": [-5.91404, 43.32734]}, "properties": {"nombre": "CAMPO MUNICIPAL GOLF LAS CALDAS", "url": "https://rfegolf.es/club/campo_municipal_golf_las_caldas?id=192", "telefono": "985798132", "email": "lascaldas@golflascaldas.com", "imagen_main": "https://assets.rfeg.es/static/assets/static/clubes/campo_municipal_golf_las_caldas/campo_municipal_golf_las_caldas_main.jpg", "municipio": "Oviedo", "provincia": "Asturias / Asturies"}}, {"type": "Feature", "geometry": {"type": "Point", "coordinates": [-1.35497, 37.67009]}, "properties": {"nombre": "CAMPOSOL CLUB DE GOLF", "url": "https://rfegolf.es/club/camposol_club_de_golf?id=546", "telefono": "624413801", "email": "hola@casaclubcamposolgolf.com", "imagen_main": "https://assets.rfeg.es/static/assets/static/clubes/camposol_club_de_golf/camposol_club_de_golf_main.jpg", "municipio": "Mazarrón", "provincia": "Región de Murcia"}}, {"type": "Feature", "geometry": {"type": "Point", "coordinates": [2.04052, 41.39319]}, "properties": {"nombre": "CAN CUYAS GOLF", "url": "https://rfegolf.es/club/can_cuyas_golf?id=422", "telefono": "936855566", "email": "info@cancuyasgolf.com", "imagen_main": "https://assets.rfeg.es/static/assets/static/clubes/can_cuyas_golf/can_cuyas_golf_main.jpg", "municipio": "Sant Feliu de Llobregat", "provincia": "Barcelona"}}, {"type": "Feature", "geometry": {"type": "Point", "coordinates": [1.99338, 41.27779]}, "properties": {"nombre": "CANAL OLIMPIC GOLF CLUB", "url": "https://rfegolf.es/club/canal_olimpic_golf_club?id=662", "telefono": "936362896", "email": "info.equacat@gencat.cat", "imagen_main": "https://assets.rfeg.es/static/assets/static/clubes/canal_olimpic_golf_club/canal_olimpic_golf_club_main.jpg", "municipio": "Castelldefels", "provincia": "Barcelona"}}, {"type": "Feature", "geometry": {"type": "Point", "coordinates": [-5.22316, 36.38978]}, "properties": {"nombre": "CASARES COSTA GOLF", "url": "https://rfegolf.es/club/casares_costa_golf?id=363", "telefono": "952937895", "email": "administracion@casarescostagolf.com", "imagen_main": "https://assets.rfeg.es/static/assets/static/clubes/casares_costa_golf/casares_costa_golf_main.jpg", "municipio": "Casares", "provincia": "Málaga"}}, {"type": "Feature", "geometry": {"type": "Point", "coordinates": [-4.75274, 40.68195]}, "properties": {"nombre": "CASINO ABULENSE", "url": "https://rfegolf.es/club/casino_abulense?id=215", "telefono": "920269449", "email": "info@casinoabulense.com", "imagen_main": "https://assets.rfeg.es/static/assets/static/clubes/casino_abulense/casino_abulense_main.jpg", "municipio": "Martiherrero", "provincia": "Ávila"}}, {"type": "Feature", "geometry": {"type": "Point", "coordinates": [-6.95671, 43.53265]}, "properties": {"nombre": "CASTROPOL GOLF", "url": "https://rfegolf.es/club/castropol_golf?id=197", "telefono": "985623843", "email": "info@casacachon.com", "imagen_main": "https://assets.rfeg.es/static/assets/static/clubes/castropol_golf/castropol_golf_main.jpg", "municipio": "Castropol", "provincia": "Asturias / Asturies"}}, {"type": "Feature", "geometry": {"type": "Point", "coordinates": [-3.68647, 40.42064]}, "properties": {"nombre": "CDE. AMIGOS DEL HOYO 19", "url": "https://rfegolf.es/club/cde_amigos_del_hoyo_19?id=685", "telefono": "914359372", "email": "secretarioah19@gmail.com", "imagen_main": "https://assets.rfeg.es/static/assets/static/clubes/cde_amigos_del_hoyo_19/cde_amigos_del_hoyo_19_main.jpg", "municipio": "Madrid", "provincia": "Comunidad de Madrid"}}, {"type": "Feature", "geometry": {"type": "Point", "coordinates": [-3.6208559000000378, 40.8152742]}, "properties": {"nombre": "CDE. CLUB DE GOLF SIERRA NORTE", "url": "https://rfegolf.es/club/cde_club_de_golf_sierra_norte?id=684", "telefono": "690618813", "email": "info@golfsierranorte.es", "imagen_main": "https://assets.rfeg.es/static/assets/static/clubes/cde_club_de_golf_sierra_norte/cde_club_de_golf_sierra_norte_main.jpg", "municipio": "Cabanillas de la Sierra", "provincia": "Comunidad de Madrid"}}, {"type": "Feature", "geometry": {"type": "Point", "coordinates": [-3.79339, 40.38143]}, "properties": {"nombre": "CENTRO DEPORTIVO MILITAR LA DEHESA", "url": "https://rfegolf.es/club/centro_deportivo_militar_la_dehesa?id=459", "telefono": "915095591", "email": "golfdehesa@jcmadrid.com", "imagen_main": "https://assets.rfeg.es/static/assets/static/clubes/centro_deportivo_militar_la_dehesa/centro_deportivo_militar_la_dehesa_main.jpg", "municipio": "Madrid", "provincia": "Comunidad de Madrid"}}, {"type": "Feature", "geometry": {"type": "Point", "coordinates": [-3.73705, 40.48538]}, "properties": {"nombre": "CENTRO NACIONAL DE GOLF", "url": "https://rfegolf.es/club/centro_nacional_de_golf?id=462", "telefono": "913769060", "email": "info@centronacionalgolf.com", "imagen_main": "https://assets.rfeg.es/static/assets/static/clubes/centro_nacional_de_golf/centro_nacional_de_golf_main.jpg", "municipio": "Madrid", "provincia": "Comunidad de Madrid"}}, {"type": "Feature", "geometry": {"type": "Point", "coordinates": [-6.15889, 36.35855]}, "properties": {"nombre": "CHICLANA FAMILY GOLF PARK", "url": "https://rfegolf.es/club/chiclana_family_golf_park?id=1062", "telefono": "956031081", "email": "roca@pga.com", "imagen_main": "https://assets.rfeg.es/static/assets/static/clubes/chiclana_family_golf_park/chiclana_family_golf_park_main.jpg", "municipio": "Chiclana de la Frontera", "provincia": "Cádiz"}}, {"type": "Feature", "geometry": {"type": "Point", "coordinates": [-3.78793, 40.64591]}, "properties": {"nombre": "CIUDAD DEPORTIVA JUAN ANTONIO SAMARANCH", "url": "https://rfegolf.es/club/ciudad_deportiva_juan_antonio_samaranch?id=1054", "telefono": "911381436", "email": "info@mistral2010.com", "imagen_main": "https://assets.rfeg.es/static/assets/static/clubes/ciudad_deportiva_juan_antonio_samaranch/ciudad_deportiva_juan_antonio_samaranch_main.jpg", "municipio": "Colmenar Viejo", "provincia": "Comunidad de Madrid"}}, {"type": "Feature", "geometry": {"type": "Point", "coordinates": [1.4879, 38.94587]}, "properties": {"nombre": "CLUB AZULINE IBIZA GOLF", "url": "https://rfegolf.es/club/club_azuline_ibiza_golf?id=1077", "telefono": "971196052", "email": "info@golfibiza.com", "imagen_main": "https://assets.rfeg.es/static/assets/static/clubes/club_azuline_ibiza_golf/club_azuline_ibiza_golf_main.jpg", "municipio": "Santa Eulària des Riu", "provincia": "Illes Balears"}}, {"type": "Feature", "geometry": {"type": "Point", "coordinates": [-2.95997, 35.28901]}, "properties": {"nombre": "CLUB CAMPO DE GOLF CIUDAD DE MELILLA", "url": "https://rfegolf.es/club/club_campo_de_golf_ciudad_de_melilla?id=868", "telefono": "952116102", "email": "golfmelilla@gmail.com", "imagen_main": "https://assets.rfeg.es/static/assets/static/clubes/club_campo_de_golf_ciudad_de_melilla/club_campo_de_golf_ciudad_de_melilla_main.jpg", "municipio": "Melilla", "provincia": "Melilla"}}, {"type": "Feature", "geometry": {"type": "Point", "coordinates": [-8.21281, 43.5586]}, "properties": {"nombre": "CLUB CAMPOMAR", "url": "https://rfegolf.es/club/club_campomar?id=488", "telefono": "981453910", "email": "gerenciacampomar@gmail.com", "imagen_main": "https://assets.rfeg.es/static/assets/static/clubes/club_campomar/club_campomar_main.jpg", "municipio": "Narón", "provincia": "A Coruña"}}, {"type": "Feature", "geometry": {"type": "Point", "coordinates": [-8.72061, 42.46874]}, "properties": {"nombre": "CAMPO DE GOLF MEIS (CLUB CHAN DO FENTO)", "url": "https://rfegolf.es/club/club_chan_do_fento_meis?id=487", "telefono": "986680400", "email": "info@campodegolfmeis.com", "imagen_main": "https://assets.rfeg.es/static/assets/static/clubes/club_chan_do_fento_meis/club_chan_do_fento_meis_main.jpg", "municipio": "Meis", "provincia": "Pontevedra"}}, {"type": "Feature", "geometry": {"type": "Point", "coordinates": [-8.32318, 43.35051]}, "properties": {"nombre": "Club de Campo de Golf de Xaz", "url": "https://rfegolf.es/club/club_de_campo_de_golf_de_xaz?id=1109", "telefono": "981552919", "email": "recepcion@xaz.golf", "imagen_main": "https://assets.rfeg.es/static/assets/static/clubes/club_de_campo_de_golf_de_xaz/club_de_campo_de_golf_de_xaz_main.jpg", "municipio": "Oleiros", "provincia": "A Coruña"}}, {"type": "Feature", "geometry": {"type": "Point", "coordinates": [-8.46069, 43.23975]}, "properties": {"nombre": "CLUB DE CAMPO EL TIRO", "url": "https://rfegolf.es/club/club_de_campo_de_tiro?id=216", "telefono": "921471733;659592507", "email": "eltiro@eltiro.es", "imagen_main": "https://assets.rfeg.es/static/assets/static/clubes/club_de_campo_de_tiro/club_de_campo_de_tiro_main.jpg", "municipio": "A Laracha", "provincia": "A Coruña"}}, {"type": "Feature", "geometry": {"type": "Point", "coordinates": [-4.74901, 41.67904]}, "properties": {"nombre": "CLUB DE CAMPO LA GALERA", "url": "https://rfegolf.es/club/club_de_campo_la_galera?id=220", "telefono": "983331977", "email": "administracion@lagalera.net", "imagen_main": "https://assets.rfeg.es/static/assets/static/clubes/club_de_campo_la_galera/club_de_campo_la_galera_main.jpg", "municipio": "Valladolid", "provincia": "Valladolid"}}, {"type": "Feature", "geometry": {"type": "Point", "coordinates": [-5.02249, 36.53599]}, "properties": {"nombre": "Club de Campo La Zagaleta", "url": "https://rfegolf.es/club/club_de_campo_la_zagaleta?id=1061", "telefono": "952855453", "email": "info@clublazagaleta.com", "imagen_main": "https://assets.rfeg.es/static/assets/static/clubes/club_de_campo_la_zagaleta/club_de_campo_la_zagaleta_main.jpg", "municipio": "Benahavís", "provincia": "Málaga"}}, {"type": "Feature", "geometry": {"type": "Point", "coordinates": [-6.23651, 37.2957]}, "properties": {"nombre": "CLUB DE CAMPO LAS MINAS GOLF", "url": "https://rfegolf.es/club/club_de_campo_las_minas_golf?id=320", "telefono": "955750678;955750556", "email": "info@clublasminasgolf.es", "imagen_main": "https://assets.rfeg.es/static/assets/static/clubes/club_de_campo_las_minas_golf/club_de_campo_las_minas_golf_main.jpg", "municipio": "Aznalcázar", "provincia": "Sevilla"}}, {"type": "Feature", "geometry": {"type": "Point", "coordinates": [-2.84986, 43.32881]}, "properties": {"nombre": "CLUB DE CAMPO LAUKARIZ", "url": "https://rfegolf.es/club/club_de_campo_laukariz?id=798", "telefono": "946740858", "email": "club@cclaukariz.com", "imagen_main": "https://assets.rfeg.es/static/assets/static/clubes/club_de_campo_laukariz/club_de_campo_laukariz_main.jpg", "municipio": "Mungia", "provincia": "Bizkaia"}}, {"type": "Feature", "geometry": {"type": "Point", "coordinates": [-1.74745, 42.85227]}, "properties": {"nombre": "CLUB DE CAMPO SEÑORIO DE ZUASTI", "url": "https://rfegolf.es/club/club_de_campo_senorio_de_zuasti?id=213", "telefono": "948304872;673340029", "email": "golf@zuasti.com", "imagen_main": "https://assets.rfeg.es/static/assets/static/clubes/club_de_campo_senorio_de_zuasti/club_de_campo_senorio_de_zuasti_main.jpg", "municipio": "Iza / Itza", "provincia": "Navarra"}}, {"type": "Feature", "geometry": {"type": "Point", "coordinates": [-3.70596, 40.60519]}, "properties": {"nombre": "CLUB DE CAMPO TRES CANTOS GOLF", "url": "https://rfegolf.es/club/club_de_campo_tres_cantos_golf?id=938", "telefono": "637518457", "email": "info@trescantosgolf.com", "imagen_main": "https://assets.rfeg.es/static/assets/static/clubes/club_de_campo_tres_cantos_golf/club_de_campo_tres_cantos_golf_main.jpg", "municipio": "Tres Cantos", "provincia": "Comunidad de Madrid"}}, {"type": "Feature", "geometry": {"type": "Point", "coordinates": [-3.76939, 40.39866]}, "properties": {"nombre": "CLUB DE CAMPO Y DEPORTES GOLF SCRATCH", "url": "https://rfegolf.es/club/club_de_campo_y_deportes_golf_scratch?id=679", "telefono": "916637032", "email": "hola@camposdegolf.es", "imagen_main": "https://assets.rfeg.es/static/assets/static/clubes/club_de_campo_y_deportes_golf_scratch/club_de_campo_y_deportes_golf_scratch_main.jpg", "municipio": "Madrid", "provincia": "Comunidad de Madrid"}}, {"type": "Feature", "geometry": {"type": "Point", "coordinates": [3.16897, 39.84297]}, "properties": {"nombre": "CLUB DE GOLF ALCANADA", "url": "https://rfegolf.es/club/club_de_golf_alcanada?id=390", "telefono": "971549560", "email": "info@golf-alcanada.com", "imagen_main": "https://assets.rfeg.es/static/assets/static/clubes/club_de_golf_alcanada/club_de_golf_alcanada_main.jpg", "municipio": "Alcúdia", "provincia": "Illes Balears"}}, {"type": "Feature", "geometry": {"type": "Point", "coordinates": [-0.44052, 38.73919]}, "properties": {"nombre": "CLUB DE GOLF ALCOY", "url": "https://rfegolf.es/club/club_de_golf_alcoy?id=705", "telefono": "965591661;965591223", "email": "clubdegolfalcoy.competicion@gmail.com", "imagen_main": "https://assets.rfeg.es/static/assets/static/clubes/club_de_golf_alcoy/club_de_golf_alcoy_main.jpg", "municipio": "Cocentaina", "provincia": "Alacant / Alicante"}}, {"type": "Feature", "geometry": {"type": "Point", "coordinates": [-1.17215, 38.0733]}, "properties": {"nombre": "CLUB DE GOLF ALTORREAL", "url": "https://rfegolf.es/club/club_de_golf_altorreal?id=544", "telefono": "968648144", "email": "reservas@golfaltorreal.es", "imagen_main": "https://assets.rfeg.es/static/assets/static/clubes/club_de_golf_altorreal/club_de_golf_altorreal_main.jpg", "municipio": "Molina de Segura", "provincia": "Región de Murcia"}}, {"type": "Feature", "geometry": {"type": "Point", "coordinates": [2.42569, 39.53932]}, "properties": {"nombre": "CLUB DE GOLF ANDRATX", "url": "https://rfegolf.es/club/club_de_golf_andratx?id=381", "telefono": "971236280", "email": "booking@golfdeandratx.com", "imagen_main": "https://assets.rfeg.es/static/assets/static/clubes/club_de_golf_andratx/club_de_golf_andratx_main.jpg", "municipio": "Andratx", "provincia": "Illes Balears"}}, {"type": "Feature", "geometry": {"type": "Point", "coordinates": [-3.61485, 41.6851]}, "properties": {"nombre": "CLUB DE GOLF ARANDA", "url": "https://rfegolf.es/club/club_de_golf_aranda?id=598", "telefono": "650188971", "email": "clubgolfaranda@hotmail.com", "imagen_main": "https://assets.rfeg.es/static/assets/static/clubes/club_de_golf_aranda/club_de_golf_aranda_main.jpg", "municipio": "Aranda de Duero", "provincia": "Burgos"}}, {"type": "Feature", "geometry": {"type": "Point", "coordinates": [-3.56901, 40.04195]}, "properties": {"nombre": "CLUB DE GOLF ARANJUEZ", "url": "https://rfegolf.es/club/club_de_golf_aranjuez?id=455", "telefono": "918916698", "email": "golfdearanjuez@telefonica.net", "imagen_main": "https://assets.rfeg.es/static/assets/static/clubes/club_de_golf_aranjuez/club_de_golf_aranjuez_main.jpg", "municipio": "Aranjuez", "provincia": "Comunidad de Madrid"}}, {"type": "Feature", "geometry": {"type": "Point", "coordinates": [-4.7495, 41.06256]}, "properties": {"nombre": "CLUB DE GOLF AREVALO", "url": "https://rfegolf.es/club/club_de_golf_arevalo?id=594", "telefono": "920300249;609335379", "email": "golfarevalo@gmail.com", "imagen_main": "https://assets.rfeg.es/static/assets/static/clubes/club_de_golf_arevalo/club_de_golf_arevalo_main.jpg", "municipio": "Arévalo", "provincia": "Ávila"}}, {"type": "Feature", "geometry": {"type": "Point", "coordinates": [-3.4409596, 40.3006796]}, "properties": {"nombre": "CLUB DE GOLF ARGANDA DEL REY", "url": "https://rfegolf.es/club/club_de_golf_arganda_del_rey?id=682", "telefono": "619316660", "email": "Directivalgagolf@gmail.com", "imagen_main": "https://assets.rfeg.es/static/assets/static/clubes/club_de_golf_arganda_del_rey/club_de_golf_arganda_del_rey_main.jpg", "municipio": "Arganda del Rey", "provincia": "Comunidad de Madrid"}}, {"type": "Feature", "geometry": {"type": "Point", "coordinates": [-7.60457, 42.51285]}, "properties": {"nombre": "CLUB DE GOLF AUGAS SANTAS", "url": "https://rfegolf.es/club/club_de_golf_augas_santas?id=495", "telefono": "982456705", "email": "golf.augassantas@iberikhoteles.com", "imagen_main": "https://assets.rfeg.es/static/assets/static/clubes/club_de_golf_augas_santas/club_de_golf_augas_santas_main.jpg", "municipio": "Pantón", "provincia": "Lugo"}}, {"type": "Feature", "geometry": {"type": "Point", "coordinates": [2.15420544147491, 41.3715552784165]}, "properties": {"nombre": "CLUB DE GOLF BCN FUNGOLF", "url": "https://rfegolf.es/club/club_de_golf_bcn_fungolf?id=665", "telefono": "615972335;686326488", "email": "", "imagen_main": "https://assets.rfeg.es/static/assets/static/clubes/club_de_golf_bcn_fungolf/club_de_golf_bcn_fungolf_main.jpg", "municipio": "Barcelona", "provincia": "Barcelona"}}, {"type": "Feature", "geometry": {"type": "Point", "coordinates": [-7.01422, 37.28118]}, "properties": {"nombre": "CLUB DE GOLF BELLAVISTA", "url": "https://rfegolf.es/club/club_de_golf_bellavista?id=282", "telefono": "959319017", "email": "bellavista@golfbellavista.com", "imagen_main": "https://assets.rfeg.es/static/assets/static/clubes/club_de_golf_bellavista/club_de_golf_bellavista_main.jpg", "municipio": "Aljaraque", "provincia": "Huelva"}}, {"type": "Feature", "geometry": {"type": "Point", "coordinates": [-5.02328, 36.50549]}, "properties": {"nombre": "CLUB DE GOLF BENAHAVÍS", "url": "https://rfegolf.es/club/club_de_golf_benahavis?id=620", "telefono": "", "email": "ana_abad.abad@hotmail.com", "imagen_main": "https://assets.rfeg.es/static/assets/static/clubes/club_de_golf_benahavis/club_de_golf_benahavis_main.jpg", "municipio": "Benahavís", "provincia": "Málaga"}}, {"type": "Feature", "geometry": {"type": "Point", "coordinates": [0.92273, 41.04185]}, "properties": {"nombre": "CLUB DE GOLF BONMONT TERRES NOVES", "url": "https://rfegolf.es/club/club_de_golf_bonmont_terres_noves?id=406", "telefono": "977818140", "email": "golf@bonmont.es", "imagen_main": "https://assets.rfeg.es/static/assets/static/clubes/club_de_golf_bonmont_terres_noves/club_de_golf_bonmont_terres_noves_main.jpg", "municipio": "Mont-roig del Camp", "provincia": "Tarragona"}}, {"type": "Feature", "geometry": {"type": "Point", "coordinates": [-5.832549500000027, 43.36525]}, "properties": {"nombre": "CLUB DE GOLF CAJASTUR", "url": "https://rfegolf.es/club/club_de_golf_cajastur?id=577", "telefono": "", "email": "clubdegolf0214@gmail.com", "imagen_main": "https://assets.rfeg.es/static/assets/static/clubes/club_de_golf_cajastur/club_de_golf_cajastur_main.jpg", "municipio": "Oviedo", "provincia": "Asturias / Asturies"}}, {"type": "Feature", "geometry": {"type": "Point", "coordinates": [-6.11713, 36.35225]}, "properties": {"nombre": "CLUB DE GOLF CAMPANO", "url": "https://rfegolf.es/club/club_de_golf_campano?id=316", "telefono": "956493081", "email": "reservas@golfcampano.com", "imagen_main": "https://assets.rfeg.es/static/assets/static/clubes/club_de_golf_campano/club_de_golf_campano_main.jpg", "municipio": "Chiclana de la Frontera", "provincia": "Cádiz"}}, {"type": "Feature", "geometry": {"type": "Point", "coordinates": [-0.77892, 37.92827]}, "properties": {"nombre": "CLUB DE GOLF CAMPOAMOR", "url": "https://rfegolf.es/club/club_de_golf_campoamor?id=532", "telefono": "965321366", "email": "golf@lomasdecampoamor.es", "imagen_main": "https://assets.rfeg.es/static/assets/static/clubes/club_de_golf_campoamor/club_de_golf_campoamor_main.jpg", "municipio": "Orihuela", "provincia": "Alacant / Alicante"}}, {"type": "Feature", "geometry": {"type": "Point", "coordinates": [2.3799, 42.31299]}, "properties": {"nombre": "CLUB DE GOLF CAMPRODON", "url": "https://rfegolf.es/club/club_de_golf_camprodon?id=398", "telefono": "972130125", "email": "info@golfcamprodon.com", "imagen_main": "https://assets.rfeg.es/static/assets/static/clubes/club_de_golf_camprodon/club_de_golf_camprodon_main.jpg", "municipio": "Camprodon", "provincia": "Girona"}}, {"type": "Feature", "geometry": {"type": "Point", "coordinates": [-5.05224, 36.46149]}, "properties": {"nombre": "CLUB DE GOLF CANCELADA", "url": "https://rfegolf.es/club/club_de_golf_cancelada?id=626", "telefono": "659444323", "email": "info@canceladagolf.com", "imagen_main": "https://assets.rfeg.es/static/assets/static/clubes/club_de_golf_cancelada/club_de_golf_cancelada_main.jpg", "municipio": "Estepona", "provincia": "Málaga"}}, {"type": "Feature", "geometry": {"type": "Point", "coordinates": [-5.31149, 40.13985]}, "properties": {"nombre": "CLUB DE GOLF CANDELEDA", "url": "https://rfegolf.es/club/club_de_golf_candeleda?id=217", "telefono": "920380759;671014222", "email": "info@golfcandeleda.com", "imagen_main": "https://assets.rfeg.es/static/assets/static/clubes/club_de_golf_candeleda/club_de_golf_candeleda_main.jpg", "municipio": "Candeleda", "provincia": "Ávila"}}, {"type": "Feature", "geometry": {"type": "Point", "coordinates": [3.39848, 39.69864]}, "properties": {"nombre": "CLUB DE GOLF CAPDEPERA", "url": "https://rfegolf.es/club/club_de_golf_capdepera?id=378", "telefono": "971818500", "email": "info@golfcapdepera.com", "imagen_main": "https://assets.rfeg.es/static/assets/static/clubes/club_de_golf_capdepera/club_de_golf_capdepera_main.jpg", "municipio": "Capdepera", "provincia": "Illes Balears"}}, {"type": "Feature", "geometry": {"type": "Point", "coordinates": [-0.9832763671875, 37.6044402461036]}, "properties": {"nombre": "CLUB DE GOLF CARTHAGO", "url": "https://rfegolf.es/club/club_de_golf_carthago?id=715", "telefono": "968140096", "email": "", "imagen_main": "https://assets.rfeg.es/static/assets/static/clubes/club_de_golf_carthago/club_de_golf_carthago_main.jpg", "municipio": "Cartagena", "provincia": "Región de Murcia"}}, {"type": "Feature", "geometry": {"type": "Point", "coordinates": [2.12891, 41.75625]}, "properties": {"nombre": "CLUB DE GOLF CASTELLTERCOL", "url": "https://rfegolf.es/club/club_de_golf_castelltercol?id=409", "telefono": "679757335", "email": "golfcastell@gmail.com", "imagen_main": "https://assets.rfeg.es/static/assets/static/clubes/club_de_golf_castelltercol/club_de_golf_castelltercol_main.jpg", "municipio": "Castellterçol", "provincia": "Barcelona"}}, {"type": "Feature", "geometry": {"type": "Point", "coordinates": [-2.39451, 38.77644]}, "properties": {"nombre": "CLUB DE GOLF CASTILLA LA MANCHA", "url": "https://rfegolf.es/club/club_de_golf_castilla_la_mancha?id=260", "telefono": "967192200", "email": "gerencia@clubdegolflaspinaillas.com", "imagen_main": "https://assets.rfeg.es/static/assets/static/clubes/club_de_golf_castilla_la_mancha/club_de_golf_castilla_la_mancha_main.jpg", "municipio": "Robledo", "provincia": "Albacete"}}, {"type": "Feature", "geometry": {"type": "Point", "coordinates": [-6.95132, 43.5521]}, "properties": {"nombre": "CLUB DE GOLF CIERRO GRANDE", "url": "https://rfegolf.es/club/club_de_golf_cierro_grande?id=188", "telefono": "985472519;610876404", "email": "info@cierrogrande.com", "imagen_main": "https://assets.rfeg.es/static/assets/static/clubes/club_de_golf_cierro_grande/club_de_golf_cierro_grande_main.jpg", "municipio": "Tapia de Casariego", "provincia": "Asturias / Asturies"}}, {"type": "Feature", "geometry": {"type": "Point", "coordinates": [-3.63721489906311, 38.0971373350606]}, "properties": {"nombre": "CLUB DE GOLF CIUDAD DE LINARES", "url": "https://rfegolf.es/club/club_de_golf_ciudad_de_linares?id=635", "telefono": "665552069", "email": "clubgolfciudadlinares@gmail.com", "imagen_main": "https://assets.rfeg.es/static/assets/static/clubes/club_de_golf_ciudad_de_linares/club_de_golf_ciudad_de_linares_main.jpg", "municipio": "Linares", "provincia": "Jaén"}}, {"type": "Feature", "geometry": {"type": "Point", "coordinates": [-3.78928, 40.64663]}, "properties": {"nombre": "CLUB DE GOLF COLMENAR VIEJO", "url": "https://rfegolf.es/club/club_de_golf_colmenar_viejo?id=1055", "telefono": "918456570", "email": "presidente@clubdegolfcolmenarviejo.es", "imagen_main": "https://assets.rfeg.es/static/assets/static/clubes/club_de_golf_colmenar_viejo/club_de_golf_colmenar_viejo_main.jpg", "municipio": "Colmenar Viejo", "provincia": "Comunidad de Madrid"}}, {"type": "Feature", "geometry": {"type": "Point", "coordinates": [-6.606327, 37.696086]}, "properties": {"nombre": "CLUB DE GOLF CORTA ATALAYA", "url": "https://rfegolf.es/club/club_de_golf_corta_atalaya?id=335", "telefono": "630227852", "email": "cdgcortaatalaya@gmail.com", "imagen_main": "https://assets.rfeg.es/static/assets/static/clubes/club_de_golf_corta_atalaya/club_de_golf_corta_atalaya_main.jpg", "municipio": "Minas de Riotinto", "provincia": "Huelva"}}, {"type": "Feature", "geometry": {"type": "Point", "coordinates": [2.98454, 41.80529]}, "properties": {"nombre": "CLUB DE GOLF COSTA BRAVA", "url": "https://rfegolf.es/club/club_de_golf_costa_brava?id=395", "telefono": "972837150", "email": "reservas@golfcostabrava.com", "imagen_main": "https://assets.rfeg.es/static/assets/static/clubes/club_de_golf_costa_brava/club_de_golf_costa_brava_main.jpg", "municipio": "Santa Cristina d'Aro", "provincia": "Girona"}}, {"type": "Feature", "geometry": {"type": "Point", "coordinates": [0.02433, 39.9915]}, "properties": {"nombre": "CLUB DE GOLF COSTA DE AZAHAR", "url": "https://rfegolf.es/club/club_de_golf_costa_de_azahar?id=508", "telefono": "", "email": "info@golfcostadeazahar.com", "imagen_main": "https://assets.rfeg.es/static/assets/static/clubes/club_de_golf_costa_de_azahar/club_de_golf_costa_de_azahar_main.jpg", "municipio": "Castelló de la Plana / Castellón de la Plana", "provincia": "Castelló / Castellón"}}, {"type": "Feature", "geometry": {"type": "Point", "coordinates": [-13.52301, 29.00408]}, "properties": {"nombre": "CLUB DE GOLF COSTA TEGUISE", "url": "https://rfegolf.es/club/club_de_golf_costa_teguise?id=466", "telefono": "928590512", "email": "info@costateguisegolf.com", "imagen_main": "https://assets.rfeg.es/static/assets/static/clubes/club_de_golf_costa_teguise/club_de_golf_costa_teguise_main.jpg", "municipio": "Teguise", "provincia": "Las Palmas"}}, {"type": "Feature", "geometry": {"type": "Point", "coordinates": [-1.950966, 39.441526]}, "properties": {"nombre": "CLUB DE GOLF CUESTA BLANCA", "url": "https://rfegolf.es/club/club_de_golf_cuesta_blanca?id=254", "telefono": "969331304", "email": "correo@clubdegolfcuestablanca.es", "imagen_main": "https://assets.rfeg.es/static/assets/static/clubes/club_de_golf_cuesta_blanca/club_de_golf_cuesta_blanca_main.jpg", "municipio": "Villanueva de la Jara", "provincia": "Cuenca"}}, {"type": "Feature", "geometry": {"type": "Point", "coordinates": [3.01735, 41.83774]}, "properties": {"nombre": "CLUB DE GOLF DARO", "url": "https://rfegolf.es/club/club_de_golf_daro?id=416", "telefono": "972816727", "email": "info@golfdaro.com", "imagen_main": "https://assets.rfeg.es/static/assets/static/clubes/club_de_golf_daro/club_de_golf_daro_main.jpg", "municipio": "Santa Cristina d'Aro", "provincia": "Girona"}}, {"type": "Feature", "geometry": {"type": "Point", "coordinates": [1.8489, 41.49268]}, "properties": {"nombre": "CLUB DE GOLF DE BARCELONA", "url": "https://rfegolf.es/club/club_de_golf_de_barcelona?id=404", "telefono": "937728800", "email": "info@golfbarcelona.com", "imagen_main": "https://assets.rfeg.es/static/assets/static/clubes/club_de_golf_de_barcelona/club_de_golf_de_barcelona_main.jpg", "municipio": "Sant Esteve Sesrovires", "provincia": "Barcelona"}}, {"type": "Feature", "geometry": {"type": "Point", "coordinates": [-5.74889, 40.39458]}, "properties": {"nombre": "CLUB DE GOLF DE BEJAR", "url": "https://rfegolf.es/club/club_de_golf_de_bejar?id=592", "telefono": "607717044;678728700", "email": "bejargolfclub@gmail.com", "imagen_main": "https://assets.rfeg.es/static/assets/static/clubes/club_de_golf_de_bejar/club_de_golf_de_bejar_main.jpg", "municipio": "Béjar", "provincia": "Salamanca"}}, {"type": "Feature", "geometry": {"type": "Point", "coordinates": [-0.43233, 38.44303]}, "properties": {"nombre": "CLUB DE GOLF DE BONALBA", "url": "https://rfegolf.es/club/club_de_golf_de_bonalba?id=534", "telefono": "", "email": "golfbonalba@golfbonalba.com", "imagen_main": "https://assets.rfeg.es/static/assets/static/clubes/club_de_golf_de_bonalba/club_de_golf_de_bonalba_main.jpg", "municipio": "Mutxamel", "provincia": "Alacant / Alicante"}}, {"type": "Feature", "geometry": {"type": "Point", "coordinates": [-2.62126922607422, 40.7856756369627]}, "properties": {"nombre": "CLUB DE GOLF DE CIFUENTES", "url": "https://rfegolf.es/club/club_de_golf_de_cifuentes?id=601", "telefono": "917429764;630158541", "email": "jomargo@live.com", "imagen_main": "https://assets.rfeg.es/static/assets/static/clubes/club_de_golf_de_cifuentes/club_de_golf_de_cifuentes_main.jpg", "municipio": "Cifuentes", "provincia": "Guadalajara"}}, {"type": "Feature", "geometry": {"type": "Point", "coordinates": [-1.57599, 42.82085]}, "properties": {"nombre": "CLUB DE GOLF DE GORRAIZ", "url": "https://rfegolf.es/club/club_de_golf_de_gorraiz?id=212", "telefono": "948337073", "email": "golfgorraiz@golfgorraiz.com", "imagen_main": "https://assets.rfeg.es/static/assets/static/clubes/club_de_golf_de_gorraiz/club_de_golf_de_gorraiz_main.jpg", "municipio": "", "provincia": "Navarra"}}, {"type": "Feature", "geometry": {"type": "Point", "coordinates": [-0.44622, 42.25398]}, "properties": {"nombre": "CLUB DE GOLF DE GUARA", "url": "https://rfegolf.es/club/club_de_golf_de_guara?id=177", "telefono": "974940850", "email": "info@golfdeguara.es", "imagen_main": "https://assets.rfeg.es/static/assets/static/clubes/club_de_golf_de_guara/club_de_golf_de_guara_main.jpg", "municipio": "Nueno", "provincia": "Huesca"}}, {"type": "Feature", "geometry": {"type": "Point", "coordinates": [-3.6893, 40.43954]}, "properties": {"nombre": "CLUB DE GOLF DE INGENIEROS INDUSTRIALES DE MADRID", "url": "https://rfegolf.es/club/club_de_golf_de_ingenieros_industriales_de_madrid?id=939", "telefono": "915315583;639612387", "email": "golf@golfcoiim.es", "imagen_main": "https://assets.rfeg.es/static/assets/static/clubes/club_de_golf_de_ingenieros_industriales_de_madrid/club_de_golf_de_ingenieros_industriales_de_madrid_main.jpg", "municipio": "Madrid", "provincia": "Comunidad de Madrid"}}, {"type": "Feature", "geometry": {"type": "Point", "coordinates": [0.14951, 38.74748]}, "properties": {"nombre": "CLUB DE GOLF DE JAVEA", "url": "https://rfegolf.es/club/club_de_golf_de_javea?id=515", "telefono": "965792584", "email": "direccion@clubdegolfjavea.es", "imagen_main": "https://assets.rfeg.es/static/assets/static/clubes/club_de_golf_de_javea/club_de_golf_de_javea_main.jpg", "municipio": "Xàbia / Jávea", "provincia": "Alacant / Alicante"}}, {"type": "Feature", "geometry": {"type": "Point", "coordinates": [-3.78624, 41.96651]}, "properties": {"nombre": "CLUB DE GOLF DE LERMA", "url": "https://rfegolf.es/club/club_de_golf_de_lerma?id=221", "telefono": "947171214", "email": "calidad@golflerma.com", "imagen_main": "https://assets.rfeg.es/static/assets/static/clubes/club_de_golf_de_lerma/club_de_golf_de_lerma_main.jpg", "municipio": "Lerma", "provincia": "Burgos"}}, {"type": "Feature", "geometry": {"type": "Point", "coordinates": [2.48582, 41.56443]}, "properties": {"nombre": "CLUB DE GOLF DE LLAVANERAS", "url": "https://rfegolf.es/club/club_de_golf_de_llavaneras?id=394", "telefono": "937926050", "email": "club@golfllavaneras.com", "imagen_main": "https://assets.rfeg.es/static/assets/static/clubes/club_de_golf_de_llavaneras/club_de_golf_de_llavaneras_main.jpg", "municipio": "Sant Andreu de Llavaneres", "provincia": "Barcelona"}}, {"type": "Feature", "geometry": {"type": "Point", "coordinates": [-4.16073, 42.99076]}, "properties": {"nombre": "CLUB DE GOLF DE NESTARES", "url": "https://rfegolf.es/club/club_de_golf_de_nestares?id=201", "telefono": "942771127", "email": "golfnestares@cantur.com", "imagen_main": "https://assets.rfeg.es/static/assets/static/clubes/club_de_golf_de_nestares/club_de_golf_de_nestares_main.jpg", "municipio": "Campoo de Enmedio", "provincia": "Cantabria"}}, {"type": "Feature", "geometry": {"type": "Point", "coordinates": [-7.81937, 42.32565]}, "properties": {"nombre": "CLUB DE GOLF DE ORENSE", "url": "https://rfegolf.es/club/club_de_golf_de_orense?id=694", "telefono": "985252318", "email": "", "imagen_main": "https://assets.rfeg.es/static/assets/static/clubes/club_de_golf_de_orense/club_de_golf_de_orense_main.jpg", "municipio": "Ourense", "provincia": "Ourense"}}, {"type": "Feature", "geometry": {"type": "Point", "coordinates": [3.19471, 41.99415]}, "properties": {"nombre": "CLUB DE GOLF DE PALS", "url": "https://rfegolf.es/club/club_de_golf_de_pals?id=643", "telefono": "972667739", "email": "info@golfdepals.com", "imagen_main": "https://assets.rfeg.es/static/assets/static/clubes/club_de_golf_de_pals/club_de_golf_de_pals_main.jpg", "municipio": "Pals", "provincia": "Girona"}}, {"type": "Feature", "geometry": {"type": "Point", "coordinates": [3.03308, 39.85899]}, "properties": {"nombre": "CLUB DE GOLF DE POLLENSA", "url": "https://rfegolf.es/club/club_de_golf_de_pollensa?id=375", "telefono": "971533216;971535151", "email": "rec@golfpollensa.com", "imagen_main": "https://assets.rfeg.es/static/assets/static/clubes/club_de_golf_de_pollensa/club_de_golf_de_pollensa_main.jpg", "municipio": "Pollença", "provincia": "Illes Balears"}}, {"type": "Feature", "geometry": {"type": "Point", "coordinates": [-3.81568908691406, 40.4344048807701]}, "properties": {"nombre": "CLUB DE GOLF DE POZUELO", "url": "https://rfegolf.es/club/club_de_golf_de_pozuelo?id=456", "telefono": "913515362", "email": "golfpozuelo@hotmail.com", "imagen_main": "https://assets.rfeg.es/static/assets/static/clubes/club_de_golf_de_pozuelo/club_de_golf_de_pozuelo_main.jpg", "municipio": "Pozuelo de Alarcón", "provincia": "Comunidad de Madrid"}}, {"type": "Feature", "geometry": {"type": "Point", "coordinates": [-0.36958, 39.47521]}, "properties": {"nombre": "CLUB DE GOLF DEL ILUSTRE COLEGIO DE ABOGADOS DE VALENCIA", "url": "https://rfegolf.es/club/club_de_golf_del_ilustre_colegio_de_abogados_de_valencia?id=954", "telefono": "963735195", "email": "info@icavgolf.es", "imagen_main": "https://assets.rfeg.es/static/assets/static/clubes/club_de_golf_del_ilustre_colegio_de_abogados_de_valencia/club_de_golf_del_ilustre_colegio_de_abogados_de_valencia_main.jpg", "municipio": "València", "provincia": "València / Valencia"}}, {"type": "Feature", "geometry": {"type": "Point", "coordinates": [-6.53552, 42.59136]}, "properties": {"nombre": "CLUB DE GOLF EL BIERZO", "url": "https://rfegolf.es/club/club_de_golf_el_bierzo?id=225", "telefono": "987695129;629085090", "email": "clubgolfbierzo@golfbierzo.es", "imagen_main": "https://assets.rfeg.es/static/assets/static/clubes/club_de_golf_el_bierzo/club_de_golf_el_bierzo_main.jpg", "municipio": "Congosto", "provincia": "León"}}, {"type": "Feature", "geometry": {"type": "Point", "coordinates": [-2.54037, 38.95061]}, "properties": {"nombre": "CLUB DE GOLF EL BONILLO", "url": "https://rfegolf.es/club/club_de_golf_el_bonillo?id=600", "telefono": "967370670", "email": "golflagunilla@elbonillo.es", "imagen_main": "https://assets.rfeg.es/static/assets/static/clubes/club_de_golf_el_bonillo/club_de_golf_el_bonillo_main.jpg", "municipio": "El Bonillo", "provincia": "Albacete"}}, {"type": "Feature", "geometry": {"type": "Point", "coordinates": [-0.62273, 39.44877]}, "properties": {"nombre": "CLUB DE GOLF EL BOSQUE", "url": "https://rfegolf.es/club/club_de_golf_el_bosque?id=512", "telefono": "961808009", "email": "golf.office@elbosquegolf.com", "imagen_main": "https://assets.rfeg.es/static/assets/static/clubes/club_de_golf_el_bosque/club_de_golf_el_bosque_main.jpg", "municipio": "Chiva", "provincia": "València / Valencia"}}, {"type": "Feature", "geometry": {"type": "Point", "coordinates": [-2.497243, 42.438126]}, "properties": {"nombre": "CLUB DE GOLF EL CAMPO DE LOGROÑO", "url": "https://rfegolf.es/club/club_de_golf_el_campo_de_logrono?id=794", "telefono": "941511360", "email": "golflogrono@fcc.es", "imagen_main": "https://assets.rfeg.es/static/assets/static/clubes/club_de_golf_el_campo_de_logrono/club_de_golf_el_campo_de_logrono_main.jpg", "municipio": "Logroño", "provincia": "La Rioja"}}, {"type": "Feature", "geometry": {"type": "Point", "coordinates": [-5.02045, 36.46794]}, "properties": {"nombre": "CLUB DE GOLF EL COTO", "url": "https://rfegolf.es/club/club_de_golf_el_coto?id=325", "telefono": "952804700", "email": "coto@golf-andalucia.net", "imagen_main": "https://assets.rfeg.es/static/assets/static/clubes/club_de_golf_el_coto/club_de_golf_el_coto_main.jpg", "municipio": "Estepona", "provincia": "Málaga"}}, {"type": "Feature", "geometry": {"type": "Point", "coordinates": [-4.31346, 40.70573]}, "properties": {"nombre": "CLUB DE GOLF EL ESPINAR", "url": "https://rfegolf.es/club/club_de_golf_el_espinar?id=223", "telefono": "", "email": "golfespinar@gmail.com", "imagen_main": "https://assets.rfeg.es/static/assets/static/clubes/club_de_golf_el_espinar/club_de_golf_el_espinar_main.jpg", "municipio": "El Espinar", "provincia": "Segovia"}}, {"type": "Feature", "geometry": {"type": "Point", "coordinates": [-15.59184, 27.7514]}, "properties": {"nombre": "CLUB DE GOLF EL FARO MASPALOMAS", "url": "https://rfegolf.es/club/club_de_golf_el_faro_maspalomas?id=689", "telefono": "671374533", "email": "golfelfaro@golfelfaro.es", "imagen_main": "https://assets.rfeg.es/static/assets/static/clubes/club_de_golf_el_faro_maspalomas/club_de_golf_el_faro_maspalomas_main.jpg", "municipio": "San Bartolomé de Tirajana", "provincia": "Las Palmas"}}, {"type": "Feature", "geometry": {"type": "Point", "coordinates": [-3.71868431568146, 40.427581638829]}, "properties": {"nombre": "CLUB DE GOLF EL FORO 2000", "url": "https://rfegolf.es/club/club_de_golf_el_foro_2000?id=676", "telefono": "619216089", "email": "informacion@foro2000.es", "imagen_main": "https://assets.rfeg.es/static/assets/static/clubes/club_de_golf_el_foro_2000/club_de_golf_el_foro_2000_main.jpg", "municipio": "Madrid", "provincia": "Comunidad de Madrid"}}, {"type": "Feature", "geometry": {"type": "Point", "coordinates": [-0.5473, 38.31328]}, "properties": {"nombre": "CLUB DE GOLF EL PLANTIO", "url": "https://rfegolf.es/club/club_de_golf_el_plantio?id=533", "telefono": "965189115", "email": "elplantiogolf@elplantio.com", "imagen_main": "https://assets.rfeg.es/static/assets/static/clubes/club_de_golf_el_plantio/club_de_golf_el_plantio_main.jpg", "municipio": "Alacant / Alicante", "provincia": "Alacant / Alicante"}}, {"type": "Feature", "geometry": {"type": "Point", "coordinates": [-15.64668, 27.78129]}, "properties": {"nombre": "CLUB DE GOLF EL SALOBRE", "url": "https://rfegolf.es/club/club_de_golf_el_salobre?id=473", "telefono": "928943004", "email": "reservation@satocan.com", "imagen_main": "https://assets.rfeg.es/static/assets/static/clubes/club_de_golf_el_salobre/club_de_golf_el_salobre_main.jpg", "municipio": "San Bartolomé de Tirajana", "provincia": "Las Palmas"}}, {"type": "Feature", "geometry": {"type": "Point", "coordinates": [2.1468494000000646, 41.4949258]}, "properties": {"nombre": "CLUB DE GOLF ELS DIMARTS AL SOL", "url": "https://rfegolf.es/club/club_de_golf_els_dimarts_al_sol?id=1064", "telefono": "669883091", "email": "info@dimartalsol.es", "imagen_main": "https://assets.rfeg.es/static/assets/static/clubes/club_de_golf_els_dimarts_al_sol/club_de_golf_els_dimarts_al_sol_main.jpg", "municipio": "Cerdanyola del Vallès", "provincia": "Barcelona"}}, {"type": "Feature", "geometry": {"type": "Point", "coordinates": [-3.86163, 40.4179]}, "properties": {"nombre": "CLUB DE GOLF ENCINAS DE BOADILLA", "url": "https://rfegolf.es/club/club_de_golf_encinas_de_boadilla?id=441", "telefono": "916331100", "email": "golflasencinas@clublasencinas.com", "imagen_main": "https://assets.rfeg.es/static/assets/static/clubes/club_de_golf_encinas_de_boadilla/club_de_golf_encinas_de_boadilla_main.jpg", "municipio": "Boadilla del Monte", "provincia": "Comunidad de Madrid"}}, {"type": "Feature", "geometry": {"type": "Point", "coordinates": [-4.84043, 41.57298]}, "properties": {"nombre": "CLUB DE GOLF ENTREPINOS", "url": "https://rfegolf.es/club/club_de_golf_entrepinos?id=219", "telefono": "983590511", "email": "comunicacion@golfentrepinos.com", "imagen_main": "https://assets.rfeg.es/static/assets/static/clubes/club_de_golf_entrepinos/club_de_golf_entrepinos_main.jpg", "municipio": "Simancas", "provincia": "Valladolid"}}, {"type": "Feature", "geometry": {"type": "Point", "coordinates": [-0.4734, 39.57698]}, "properties": {"nombre": "CLUB DE GOLF ESCORPION", "url": "https://rfegolf.es/club/club_de_golf_escorpion?id=513", "telefono": "961601211", "email": "info@clubescorpion.com", "imagen_main": "https://assets.rfeg.es/static/assets/static/clubes/club_de_golf_escorpion/club_de_golf_escorpion_main.jpg", "municipio": "Bétera", "provincia": "València / Valencia"}}, {"type": "Feature", "geometry": {"type": "Point", "coordinates": [-5.15521645545959, 36.4270578450795]}, "properties": {"nombre": "CLUB DE GOLF ESTEBBUNA", "url": "https://rfegolf.es/club/club_de_golf_estebbuna?id=618", "telefono": "952808068", "email": "estebbuna@golf-andalucia.net", "imagen_main": "https://assets.rfeg.es/static/assets/static/clubes/club_de_golf_estebbuna/club_de_golf_estebbuna_main.jpg", "municipio": "Estepona", "provincia": "Málaga"}}, {"type": "Feature", "geometry": {"type": "Point", "coordinates": [-0.69978, 38.33106]}, "properties": {"nombre": "CLUB DE GOLF FONT DEL LLOP", "url": "https://rfegolf.es/club/club_de_golf_font_del_llop?id=526", "telefono": "966126767;966126765", "email": "info@fdlgolf.es", "imagen_main": "https://assets.rfeg.es/static/assets/static/clubes/club_de_golf_font_del_llop/club_de_golf_font_del_llop_main.jpg", "municipio": "Monforte del Cid", "provincia": "Alacant / Alicante"}}, {"type": "Feature", "geometry": {"type": "Point", "coordinates": [-0.17303, 38.98387]}, "properties": {"nombre": "CLUB DE GOLF GANDIA", "url": "https://rfegolf.es/club/club_de_golf_gandia?id=702", "telefono": "962873208", "email": "clubgolf.gandia@telefonica.net", "imagen_main": "https://assets.rfeg.es/static/assets/static/clubes/club_de_golf_gandia/club_de_golf_gandia_main.jpg", "municipio": "Gandia", "provincia": "València / Valencia"}}, {"type": "Feature", "geometry": {"type": "Point", "coordinates": [2.4952, 41.57498]}, "properties": {"nombre": "CLUB DE GOLF HCP1", "url": "https://rfegolf.es/club/club_de_golf_hcp1?id=419", "telefono": "937913001", "email": "info@hcp1.es", "imagen_main": "https://assets.rfeg.es/static/assets/static/clubes/club_de_golf_hcp1/club_de_golf_hcp1_main.jpg", "municipio": "Sant Andreu de Llavaneres", "provincia": "Barcelona"}}, {"type": "Feature", "geometry": {"type": "Point", "coordinates": [0.10437, 38.68763]}, "properties": {"nombre": "CLUB DE GOLF IFACH", "url": "https://rfegolf.es/club/club_de_golf_ifach?id=511", "telefono": "966497114", "email": "info@golfifach.com", "imagen_main": "https://assets.rfeg.es/static/assets/static/clubes/club_de_golf_ifach/club_de_golf_ifach_main.jpg", "municipio": "Benissa", "provincia": "Alacant / Alicante"}}, {"type": "Feature", "geometry": {"type": "Point", "coordinates": [-0.46387, 42.58394]}, "properties": {"nombre": "CLUB DE GOLF JACA", "url": "https://rfegolf.es/club/club_de_golf_jaca?id=182", "telefono": "974350770", "email": "club@jacagolf.com", "imagen_main": "https://assets.rfeg.es/static/assets/static/clubes/club_de_golf_jaca/club_de_golf_jaca_main.jpg", "municipio": "Jaca", "provincia": "Huesca"}}, {"type": "Feature", "geometry": {"type": "Point", "coordinates": [-5.30724, 36.29444]}, "properties": {"nombre": "CLUB DE GOLF LA CAÑADA", "url": "https://rfegolf.es/club/club_de_golf_la_canada?id=285", "telefono": "956794100", "email": "reservas@lacanadagolf.com", "imagen_main": "https://assets.rfeg.es/static/assets/static/clubes/club_de_golf_la_canada/club_de_golf_la_canada_main.jpg", "municipio": "San Roque", "provincia": "Cádiz"}}, {"type": "Feature", "geometry": {"type": "Point", "coordinates": [-3.98162, 40.450345]}, "properties": {"nombre": "CLUB DE GOLF LA DEHESA", "url": "https://rfegolf.es/club/club_de_golf_la_dehesa?id=454", "telefono": "918157022", "email": "secretaria@golfladehesa.es", "imagen_main": "https://assets.rfeg.es/static/assets/static/clubes/club_de_golf_la_dehesa/club_de_golf_la_dehesa_main.jpg", "municipio": "Villanueva de la Cañada", "provincia": "Comunidad de Madrid"}}, {"type": "Feature", "geometry": {"type": "Point", "coordinates": [-3.60896, 38.14808]}, "properties": {"nombre": "CLUB DE GOLF LA GARZA", "url": "https://rfegolf.es/club/club_de_golf_la_garza?id=610", "telefono": "652913771", "email": "contacto@clubgolflagarza.es", "imagen_main": "https://assets.rfeg.es/static/assets/static/clubes/club_de_golf_la_garza/club_de_golf_la_garza_main.jpg", "municipio": "Linares", "provincia": "Jaén"}}, {"type": "Feature", "geometry": {"type": "Point", "coordinates": [1.57645, 41.22826]}, "properties": {"nombre": "CLUB DE GOLF LA GRAIERA", "url": "https://rfegolf.es/club/club_de_golf_la_graiera?id=410", "telefono": "977168032", "email": "info@graiera.es", "imagen_main": "https://assets.rfeg.es/static/assets/static/clubes/club_de_golf_la_graiera/club_de_golf_la_graiera_main.jpg", "municipio": "Calafell", "provincia": "Tarragona"}}, {"type": "Feature", "geometry": {"type": "Point", "coordinates": [2.03305006027222, 41.5966140956252]}, "properties": {"nombre": "CLUB DE GOLF LA MOLA", "url": "https://rfegolf.es/club/club_de_golf_la_mola?id=405", "telefono": "937300516", "email": "", "imagen_main": "https://assets.rfeg.es/static/assets/static/clubes/club_de_golf_la_mola/club_de_golf_la_mola_main.jpg", "municipio": "Matadepera", "provincia": "Barcelona"}}, {"type": "Feature", "geometry": {"type": "Point", "coordinates": [-0.95627, 37.88281]}, "properties": {"nombre": "CLUB DE GOLF LA PERALEJA", "url": "https://rfegolf.es/club/club_de_golf_la_peraleja?id=552", "telefono": "968607575", "email": "info@peralejagolf.com", "imagen_main": "https://assets.rfeg.es/static/assets/static/clubes/club_de_golf_la_peraleja/club_de_golf_la_peraleja_main.jpg", "municipio": "Murcia", "provincia": "Región de Murcia"}}, {"type": "Feature", "geometry": {"type": "Point", "coordinates": [-5.14887, 43.46478]}, "properties": {"nombre": "CLUB DE GOLF LA RASA DE BERBES", "url": "https://rfegolf.es/club/club_de_golf_la_rasa_de_berbes?id=186", "telefono": "628011908", "email": "info@golflarasa.com", "imagen_main": "https://assets.rfeg.es/static/assets/static/clubes/club_de_golf_la_rasa_de_berbes/club_de_golf_la_rasa_de_berbes_main.jpg", "municipio": "Ribadesella/Ribeseya", "provincia": "Asturias / Asturies"}}, {"type": "Feature", "geometry": {"type": "Point", "coordinates": [-5.32125, 36.29478]}, "properties": {"nombre": "CLUB DE GOLF LA RESERVA DE SOTOGRANDE", "url": "https://rfegolf.es/club/club_de_golf_la_reserva_de_sotogrande?id=345", "telefono": "956785252", "email": "lareserva.members@sotogrande.com", "imagen_main": "https://assets.rfeg.es/static/assets/static/clubes/club_de_golf_la_reserva_de_sotogrande/club_de_golf_la_reserva_de_sotogrande_main.jpg", "municipio": "San Roque", "provincia": "Cádiz"}}, {"type": "Feature", "geometry": {"type": "Point", "coordinates": [-4.7232, 36.50011]}, "properties": {"nombre": "CLUB DE GOLF LA SIESTA", "url": "https://rfegolf.es/club/club_de_golf_la_siesta?id=323", "telefono": "952933362", "email": "lasiestagolf@gmail.com", "imagen_main": "https://assets.rfeg.es/static/assets/static/clubes/club_de_golf_la_siesta/club_de_golf_la_siesta_main.jpg", "municipio": "Mijas", "provincia": "Málaga"}}, {"type": "Feature", "geometry": {"type": "Point", "coordinates": [-4.42955, 40.90814]}, "properties": {"nombre": "CLUB DE GOLF LA VALDENARRA DE BERCIAL", "url": "https://rfegolf.es/club/club_de_golf_la_valdenarra_de_bercial?id=746", "telefono": "639674370", "email": "valdenarragolf@gmail.com", "imagen_main": "https://assets.rfeg.es/static/assets/static/clubes/club_de_golf_la_valdenarra_de_bercial/club_de_golf_la_valdenarra_de_bercial_main.jpg", "municipio": "Bercial", "provincia": "Segovia"}}, {"type": "Feature", "geometry": {"type": "Point", "coordinates": [-5.81939499999999, 43.4422205]}, "properties": {"nombre": "CLUB DE GOLF LA VENTURA", "url": "https://rfegolf.es/club/club_de_golf_la_ventura?id=976", "telefono": "630749689;637380219", "email": "laventuragolf@gmail.com", "imagen_main": "https://assets.rfeg.es/static/assets/static/clubes/club_de_golf_la_ventura/club_de_golf_la_ventura_main.jpg", "municipio": "Llanera", "provincia": "Asturias / Asturies"}}, {"type": "Feature", "geometry": {"type": "Point", "coordinates": [-2.113123, 40.215097]}, "properties": {"nombre": "CLUB DE GOLF LA VEREDA", "url": "https://rfegolf.es/club/club_de_golf_la_vereda?id=252", "telefono": "606257783", "email": "laveredagolfclub@gmail.com", "imagen_main": "https://assets.rfeg.es/static/assets/static/clubes/club_de_golf_la_vereda/club_de_golf_la_vereda_main.jpg", "municipio": "Villalba de la Sierra", "provincia": "Cuenca"}}, {"type": "Feature", "geometry": {"type": "Point", "coordinates": [-2.38923, 39.47553]}, "properties": {"nombre": "CLUB DE GOLF LAGUNA DE TITO", "url": "https://rfegolf.es/club/club_de_golf_laguna_de_tito?id=256", "telefono": "969300968", "email": "golfmolinoderus@gmail.com", "imagen_main": "https://assets.rfeg.es/static/assets/static/clubes/club_de_golf_laguna_de_tito/club_de_golf_laguna_de_tito_main.jpg", "municipio": "San Clemente", "provincia": "Cuenca"}}, {"type": "Feature", "geometry": {"type": "Point", "coordinates": [-2.61798, 42.96839]}, "properties": {"nombre": "CLUB DE GOLF LARRABEA", "url": "https://rfegolf.es/club/club_de_golf_larrabea?id=802", "telefono": "945465485", "email": "info@larrabea.com", "imagen_main": "https://assets.rfeg.es/static/assets/static/clubes/club_de_golf_larrabea/club_de_golf_larrabea_main.jpg", "municipio": "Legutio", "provincia": "Araba / Álava"}}, {"type": "Feature", "geometry": {"type": "Point", "coordinates": [-3.68328452110291, 40.4362259282347]}, "properties": {"nombre": "CLUB DE GOLF LAS BANDERAS", "url": "https://rfegolf.es/club/club_de_golf_las_banderas?id=775", "telefono": "914115684", "email": "clubdegolflabandera@hotmail.es", "imagen_main": "https://assets.rfeg.es/static/assets/static/clubes/club_de_golf_las_banderas/club_de_golf_las_banderas_main.jpg", "municipio": "Madrid", "provincia": "Comunidad de Madrid"}}, {"type": "Feature", "geometry": {"type": "Point", "coordinates": [-5.91404, 43.32734]}, "properties": {"nombre": "CLUB DE GOLF LAS CALDAS", "url": "https://rfegolf.es/club/club_de_golf_las_caldas?id=576", "telefono": "985798702;681163108", "email": "info@clubdegolflascaldas.com", "imagen_main": "https://assets.rfeg.es/static/assets/static/clubes/club_de_golf_las_caldas/club_de_golf_las_caldas_main.jpg", "municipio": "Oviedo", "provincia": "Asturias / Asturies"}}, {"type": "Feature", "geometry": {"type": "Point", "coordinates": [-3.61685, 41.37736]}, "properties": {"nombre": "CLUB DE GOLF LAS LLANÁS", "url": "https://rfegolf.es/club/club_de_golf_las_llanas?id=240", "telefono": "921067012;921557864", "email": "claudia@lasllanas.com", "imagen_main": "https://assets.rfeg.es/static/assets/static/clubes/club_de_golf_las_llanas/club_de_golf_las_llanas_main.jpg", "municipio": "Grajera", "provincia": "Segovia"}}, {"type": "Feature", "geometry": {"type": "Point", "coordinates": [-4.68318, 36.506]}, "properties": {"nombre": "CLUB DE GOLF LAS NORIAS", "url": "https://rfegolf.es/club/club_de_golf_las_norias?id=722", "telefono": "952587653", "email": "info@lanoriagolf.net", "imagen_main": "", "municipio": "Mijas", "provincia": "Málaga"}}, {"type": "Feature", "geometry": {"type": "Point", "coordinates": [-6.24307, 39.97402]}, "properties": {"nombre": "CLUB DE GOLF LAS PIZARRAS", "url": "https://rfegolf.es/club/club_de_golf_las_pizarras?id=1102", "telefono": "647710145;647708979", "email": "", "imagen_main": "https://assets.rfeg.es/static/assets/static/clubes/club_de_golf_las_pizarras/club_de_golf_las_pizarras_main.jpg", "municipio": "Plasencia", "provincia": "Cáceres"}}, {"type": "Feature", "geometry": {"type": "Point", "coordinates": [-0.82672119140625, 37.8092414665016]}, "properties": {"nombre": "CLUB DE GOLF LEVEN", "url": "https://rfegolf.es/club/club_de_golf_leven?id=718", "telefono": "", "email": "", "imagen_main": "https://assets.rfeg.es/static/assets/static/clubes/club_de_golf_leven/club_de_golf_leven_main.jpg", "municipio": "San Javier", "provincia": "Región de Murcia"}}, {"type": "Feature", "geometry": {"type": "Point", "coordinates": [-3.94509, 40.38038]}, "properties": {"nombre": "CLUB DE GOLF LOMAS BOSQUE", "url": "https://rfegolf.es/club/club_de_golf_lomas_bosque?id=439", "telefono": "916167500", "email": "web@lomas-bosque.com", "imagen_main": "https://assets.rfeg.es/static/assets/static/clubes/club_de_golf_lomas_bosque/club_de_golf_lomas_bosque_main.jpg", "municipio": "Villaviciosa de Odón", "provincia": "Comunidad de Madrid"}}, {"type": "Feature", "geometry": {"type": "Point", "coordinates": [-5.88855, 43.54125]}, "properties": {"nombre": "CLUB DE GOLF LOS BALAGARES", "url": "https://rfegolf.es/club/club_de_golf_los_balagares?id=196", "telefono": "985535178;662121868", "email": "losbalagares@losbalagaresgolf.com", "imagen_main": "https://assets.rfeg.es/static/assets/static/clubes/club_de_golf_los_balagares/club_de_golf_los_balagares_main.jpg", "municipio": "Corvera de Asturias", "provincia": "Asturias / Asturies"}}, {"type": "Feature", "geometry": {"type": "Point", "coordinates": [-6.57324, 43.55146]}, "properties": {"nombre": "CLUB DE GOLF LUARCA", "url": "https://rfegolf.es/club/club_de_golf_luarca?id=195", "telefono": "687800425", "email": "clubdegolfluarca@yahoo.com", "imagen_main": "https://assets.rfeg.es/static/assets/static/clubes/club_de_golf_luarca/club_de_golf_luarca_main.jpg", "municipio": "Valdés", "provincia": "Asturias / Asturies"}}, {"type": "Feature", "geometry": {"type": "Point", "coordinates": [-7.54977, 42.94099]}, "properties": {"nombre": "CLUB DE GOLF LUGO S.A.", "url": "https://rfegolf.es/club/club_de_golf_lugo_sa?id=504", "telefono": "982176314", "email": "golflugo@golflugo.com", "imagen_main": "https://assets.rfeg.es/static/assets/static/clubes/club_de_golf_lugo_sa/club_de_golf_lugo_sa_main.jpg", "municipio": "Lugo", "provincia": "Lugo"}}, {"type": "Feature", "geometry": {"type": "Point", "coordinates": [-5.62949, 43.51898]}, "properties": {"nombre": "CLUB DE GOLF MADERA III", "url": "https://rfegolf.es/club/club_de_golf_madera_iii?id=575", "telefono": "985365379", "email": "madera3@madera3.es", "imagen_main": "https://assets.rfeg.es/static/assets/static/clubes/club_de_golf_madera_iii/club_de_golf_madera_iii_main.jpg", "municipio": "Gijón / Xixón", "provincia": "Asturias / Asturies"}}, {"type": "Feature", "geometry": {"type": "Point", "coordinates": [-4.89704, 36.51134]}, "properties": {"nombre": "CLUB DE GOLF MARBELLA", "url": "https://rfegolf.es/club/club_de_golf_marbella?id=813", "telefono": "772752319", "email": "info@golfmarbella.net", "imagen_main": "https://assets.rfeg.es/static/assets/static/clubes/club_de_golf_marbella/club_de_golf_marbella_main.jpg", "municipio": "Marbella", "provincia": "Málaga"}}, {"type": "Feature", "geometry": {"type": "Point", "coordinates": [-0.42193, 39.41245]}, "properties": {"nombre": "CLUB DE GOLF MASIA DE LAS ESTRELLAS", "url": "https://rfegolf.es/club/club_de_golf_masia_de_las_estrellas?id=519", "telefono": "960442200", "email": "info@masiadelasestrellas.com", "imagen_main": "https://assets.rfeg.es/static/assets/static/clubes/club_de_golf_masia_de_las_estrellas/club_de_golf_masia_de_las_estrellas_main.jpg", "municipio": "Catarroja", "provincia": "València / Valencia"}}, {"type": "Feature", "geometry": {"type": "Point", "coordinates": [2.03382, 41.60049]}, "properties": {"nombre": "CLUB DE GOLF MATADEPERA", "url": "https://rfegolf.es/club/club_de_golf_matadepera?id=1027", "telefono": "937300516;607242121", "email": "mtdp.golf@matadepera.cat", "imagen_main": "https://assets.rfeg.es/static/assets/static/clubes/club_de_golf_matadepera/club_de_golf_matadepera_main.jpg", "municipio": "Matadepera", "provincia": "Barcelona"}}, {"type": "Feature", "geometry": {"type": "Point", "coordinates": [-3.79072, 43.48524]}, "properties": {"nombre": "CLUB DE GOLF MATALEÑAS", "url": "https://rfegolf.es/club/club_de_golf_matalenas?id=580", "telefono": "942392775", "email": "pollo@golfmatalenas.com", "imagen_main": "https://assets.rfeg.es/static/assets/static/clubes/club_de_golf_matalenas/club_de_golf_matalenas_main.jpg", "municipio": "Santander", "provincia": "Cantabria"}}, {"type": "Feature", "geometry": {"type": "Point", "coordinates": [2.08238, 41.80238]}, "properties": {"nombre": "CLUB DE GOLF MONTBRU-MOIA", "url": "https://rfegolf.es/club/club_de_golf_montbru_moia?id=411", "telefono": "654513180", "email": "info@golfmoia.com", "imagen_main": "https://assets.rfeg.es/static/assets/static/clubes/club_de_golf_montbru_moia/club_de_golf_montbru_moia_main.jpg", "municipio": "Moià", "provincia": "Barcelona"}}, {"type": "Feature", "geometry": {"type": "Point", "coordinates": [-3.46959, 38.64177]}, "properties": {"nombre": "CLUB DE GOLF MUDELA", "url": "https://rfegolf.es/club/club_de_golf_mudela?id=257", "telefono": "604891408", "email": "golfmudela@telefonica.net", "imagen_main": "https://assets.rfeg.es/static/assets/static/clubes/club_de_golf_mudela/club_de_golf_mudela_main.jpg", "municipio": "Santa Cruz de Mudela", "provincia": "Ciudad Real"}}, {"type": "Feature", "geometry": {"type": "Point", "coordinates": [-3.08246, 41.83738]}, "properties": {"nombre": "CLUB DE GOLF NAVAGRULLA", "url": "https://rfegolf.es/club/club_de_golf_navagrulla?id=232", "telefono": "637841733", "email": "navagrullagolf@gmail.com", "imagen_main": "https://assets.rfeg.es/static/assets/static/clubes/club_de_golf_navagrulla/club_de_golf_navagrulla_main.jpg", "municipio": "San Leonardo de Yagüe", "provincia": "Soria"}}, {"type": "Feature", "geometry": {"type": "Point", "coordinates": [-4.6916, 40.41299]}, "properties": {"nombre": "CLUB DE GOLF NAVALUENGA", "url": "https://rfegolf.es/club/club_de_golf_navaluenga?id=237", "telefono": "682424097", "email": "golfnavalauenga@hotmail.com", "imagen_main": "https://assets.rfeg.es/static/assets/static/clubes/club_de_golf_navaluenga/club_de_golf_navaluenga_main.jpg", "municipio": "Navaluenga", "provincia": "Ávila"}}, {"type": "Feature", "geometry": {"type": "Point", "coordinates": [-4.89518, 40.36419]}, "properties": {"nombre": "CLUB DE GOLF  NAVARREVISCA", "url": "https://rfegolf.es/club/club_de_golf_navarrevisca?id=246", "telefono": "920289001", "email": "navarrevisca@diputacionavila.es", "imagen_main": "https://assets.rfeg.es/static/assets/static/clubes/club_de_golf_navarrevisca/club_de_golf_navarrevisca_main.jpg", "municipio": "Navarrevisca", "provincia": "Ávila"}}, {"type": "Feature", "geometry": {"type": "Point", "coordinates": [-3.60955, 40.46865]}, "properties": {"nombre": "CLUB DE GOLF OLIVAR DE LA HINOJOSA", "url": "https://rfegolf.es/club/club_de_golf_olivar_de_la_hinojosa?id=458", "telefono": "917211889", "email": "go@golfolivar.com", "imagen_main": "https://assets.rfeg.es/static/assets/static/clubes/club_de_golf_olivar_de_la_hinojosa/club_de_golf_olivar_de_la_hinojosa_main.jpg", "municipio": "Madrid", "provincia": "Comunidad de Madrid"}}, {"type": "Feature", "geometry": {"type": "Point", "coordinates": [-0.64541, 38.81022]}, "properties": {"nombre": "CLUB DE GOLF ONTINYENT", "url": "https://rfegolf.es/club/club_de_golf_ontinyent?id=703", "telefono": "962383079", "email": "", "imagen_main": "https://assets.rfeg.es/static/assets/static/clubes/club_de_golf_ontinyent/club_de_golf_ontinyent_main.jpg", "municipio": "Ontinyent", "provincia": "València / Valencia"}}, {"type": "Feature", "geometry": {"type": "Point", "coordinates": [-8.17735, 43.3026]}, "properties": {"nombre": "CLUB DE GOLF PADERNE", "url": "https://rfegolf.es/club/club_de_golf_paderne?id=947", "telefono": "881084091;627104988", "email": "info@golfpaderne.com", "imagen_main": "https://assets.rfeg.es/static/assets/static/clubes/club_de_golf_paderne/club_de_golf_paderne_main.jpg", "municipio": "Paderne", "provincia": "A Coruña"}}, {"type": "Feature", "geometry": {"type": "Point", "coordinates": [-2.86625, 43.322]}, "properties": {"nombre": "CLUB DE GOLF PALACIO DE URGOITI", "url": "https://rfegolf.es/club/club_de_golf_palacio_de_urgoiti?id=822", "telefono": "946746868", "email": "golf@palaciourgoiti.com", "imagen_main": "https://assets.rfeg.es/static/assets/static/clubes/club_de_golf_palacio_de_urgoiti/club_de_golf_palacio_de_urgoiti_main.jpg", "municipio": "Mungia", "provincia": "Bizkaia"}}, {"type": "Feature", "geometry": {"type": "Point", "coordinates": [0.37011, 40.55201]}, "properties": {"nombre": "CLUB DE GOLF PANORAMICA", "url": "https://rfegolf.es/club/club_de_golf_panoramica_?id=704", "telefono": "964493072", "email": "golf@panormicagrupo.com", "imagen_main": "https://assets.rfeg.es/static/assets/static/clubes/club_de_golf_panoramica_/club_de_golf_panoramica__main.jpg", "municipio": "Sant Jordi / San Jorge", "provincia": "Castelló / Castellón"}}, {"type": "Feature", "geometry": {"type": "Point", "coordinates": [-6.006622800000059, 37.3871072]}, "properties": {"nombre": "Club de Golf Pies Blancos", "url": "https://rfegolf.es/club/club_de_golf_pies_blancos?id=1058", "telefono": "", "email": "piesblancosgolf@gmail.com", "imagen_main": "https://assets.rfeg.es/static/assets/static/clubes/club_de_golf_pies_blancos/club_de_golf_pies_blancos_main.jpg", "municipio": "Sevilla", "provincia": "Sevilla"}}, {"type": "Feature", "geometry": {"type": "Point", "coordinates": [-2.63443, 36.72529]}, "properties": {"nombre": "CLUB DE GOLF PLAYA SERENA", "url": "https://rfegolf.es/club/club_de_golf_playa_serena?id=312", "telefono": "950333055", "email": "info@golfplayaserena.com", "imagen_main": "https://assets.rfeg.es/static/assets/static/clubes/club_de_golf_playa_serena/club_de_golf_playa_serena_main.jpg", "municipio": "Roquetas de Mar", "provincia": "Almería"}},